{
  "no": "05",
  "pref_name": "akita",
  "spots": [
    {
      "id": 1,
      "name": "ぽよよんの森 ドッグラン",
      "category": "dog_run",
      "area": "秋田",
      "city": "東成瀬村",
      "lat": 39.1303,
      "lng": 140.718,
      "url": "",
      "conditions": {
        "vaccination_cert": null,
        "size_limit": "",
        "fee": ""
      },
      "caution": "",
      "note": "",
      "sns": [],
      "source": "osm",
      "osm_id": "node/7778179241",
      "last_verified": "2026-07-20"
    },
    {
      "id": 2,
      "name": "(犬専用公園)",
      "category": "dog_run",
      "area": "秋田",
      "city": "秋田市",
      "lat": 39.6655,
      "lng": 140.1688,
      "url": "",
      "conditions": {
        "vaccination_cert": null,
        "size_limit": "",
        "fee": ""
      },
      "caution": "",
      "note": "",
      "sns": [],
      "source": "osm",
      "osm_id": "way/773090768",
      "last_verified": "2026-07-20"
    },
    {
      "id": 3,
      "name": "ドッグラン",
      "category": "dog_run",
      "area": "秋田",
      "city": "大館市",
      "lat": 40.3054,
      "lng": 140.5614,
      "url": "",
      "conditions": {
        "vaccination_cert": null,
        "size_limit": "",
        "fee": ""
      },
      "caution": "",
      "note": "",
      "sns": [],
      "source": "osm",
      "osm_id": "way/832286145",
      "last_verified": "2026-07-20"
    },
    {
      "id": 4,
      "name": "秋田犬ふれあい処in千秋公園",
      "category": "dog_run",
      "area": "秋田",
      "city": "秋田市",
      "lat": 39.7209,
      "lng": 140.1246,
      "url": "",
      "conditions": {
        "vaccination_cert": null,
        "size_limit": "",
        "fee": ""
      },
      "caution": "",
      "note": "",
      "sns": [],
      "source": "osm",
      "osm_id": "way/885564164",
      "last_verified": "2026-07-20"
    },
    {
      "id": 5,
      "name": "秋田ふるさと村",
      "category": "park",
      "area": "秋田",
      "city": "横手市",
      "lat": 39.2931,
      "lng": 140.5465,
      "url": "https://akitafurusatomura.co.jp/",
      "conditions": {
        "vaccination_cert": null,
        "size_limit": "",
        "fee": ""
      },
      "caution": "",
      "note": "",
      "sns": [],
      "source": "osm",
      "osm_id": "relation/10737865",
      "last_verified": "2026-07-20"
    },
    {
      "id": 6,
      "name": "北欧の杜公園",
      "category": "park",
      "area": "秋田",
      "city": "北秋田市",
      "lat": 40.1642,
      "lng": 140.3657,
      "url": "",
      "conditions": {
        "vaccination_cert": null,
        "size_limit": "",
        "fee": ""
      },
      "caution": "",
      "note": "",
      "sns": [],
      "source": "osm",
      "osm_id": "relation/12937627",
      "last_verified": "2026-07-20"
    },
    {
      "id": 7,
      "name": "秋田県立中央公園",
      "category": "park",
      "area": "秋田",
      "city": "秋田市",
      "lat": 39.6176,
      "lng": 140.2148,
      "url": "",
      "conditions": {
        "vaccination_cert": null,
        "size_limit": "",
        "fee": ""
      },
      "caution": "",
      "note": "",
      "sns": [],
      "source": "osm",
      "osm_id": "relation/13160160",
      "last_verified": "2026-07-20"
    },
    {
      "id": 8,
      "name": "高清水公園",
      "category": "park",
      "area": "秋田",
      "city": "秋田市",
      "lat": 39.7407,
      "lng": 140.0832,
      "url": "",
      "conditions": {
        "vaccination_cert": null,
        "size_limit": "",
        "fee": ""
      },
      "caution": "",
      "note": "",
      "sns": [],
      "source": "osm",
      "osm_id": "relation/17887722",
      "last_verified": "2026-07-20"
    },
    {
      "id": 9,
      "name": "雁の里山本公園",
      "category": "park",
      "area": "秋田",
      "city": "美郷町",
      "lat": 39.3624,
      "lng": 140.548,
      "url": "",
      "conditions": {
        "vaccination_cert": null,
        "size_limit": "",
        "fee": ""
      },
      "caution": "",
      "note": "",
      "sns": [],
      "source": "osm",
      "osm_id": "way/1136468303",
      "last_verified": "2026-07-20"
    },
    {
      "id": 10,
      "name": "赤坂総合公園",
      "category": "park",
      "area": "秋田",
      "city": "横手市",
      "lat": 39.297,
      "lng": 140.545,
      "url": "",
      "conditions": {
        "vaccination_cert": null,
        "size_limit": "",
        "fee": ""
      },
      "caution": "",
      "note": "",
      "sns": [],
      "source": "osm",
      "osm_id": "way/1189147664",
      "last_verified": "2026-07-20"
    },
    {
      "id": 11,
      "name": "大仙市総合公園",
      "category": "park",
      "area": "秋田",
      "city": "大仙市",
      "lat": 39.4373,
      "lng": 140.4343,
      "url": "",
      "conditions": {
        "vaccination_cert": null,
        "size_limit": "",
        "fee": ""
      },
      "caution": "",
      "note": "",
      "sns": [],
      "source": "osm",
      "osm_id": "way/1300458285",
      "last_verified": "2026-07-20"
    },
    {
      "id": 12,
      "name": "千秋公園",
      "category": "park",
      "area": "秋田",
      "city": "秋田市",
      "lat": 39.7216,
      "lng": 140.1237,
      "url": "https://www.city.akita.lg.jp/kurashi/doro-koen/1003685/1007159/",
      "conditions": {
        "vaccination_cert": null,
        "size_limit": "",
        "fee": ""
      },
      "caution": "",
      "note": "",
      "sns": [],
      "source": "osm",
      "osm_id": "way/38869780",
      "last_verified": "2026-07-20"
    },
    {
      "id": 13,
      "name": "鷹巣中央公園",
      "category": "park",
      "area": "秋田",
      "city": "北秋田市",
      "lat": 40.2143,
      "lng": 140.3837,
      "url": "",
      "conditions": {
        "vaccination_cert": null,
        "size_limit": "",
        "fee": ""
      },
      "caution": "",
      "note": "",
      "sns": [],
      "source": "osm",
      "osm_id": "way/546028591",
      "last_verified": "2026-07-20"
    },
    {
      "id": 14,
      "name": "鞍掛沼公園",
      "category": "park",
      "area": "秋田",
      "city": "潟上市",
      "lat": 39.8569,
      "lng": 140.0095,
      "url": "https://www.kurara-spa.co.jp",
      "conditions": {
        "vaccination_cert": null,
        "size_limit": "",
        "fee": ""
      },
      "caution": "",
      "note": "",
      "sns": [],
      "source": "osm",
      "osm_id": "way/549501573",
      "last_verified": "2026-07-20",
      "link_broken": true
    },
    {
      "id": 15,
      "name": "元木山公園",
      "category": "park",
      "area": "秋田",
      "city": "潟上市",
      "lat": 39.8628,
      "lng": 140.0707,
      "url": "",
      "conditions": {
        "vaccination_cert": null,
        "size_limit": "",
        "fee": ""
      },
      "caution": "",
      "note": "",
      "sns": [],
      "source": "osm",
      "osm_id": "way/550544006",
      "last_verified": "2026-07-20"
    },
    {
      "id": 16,
      "name": "県立小泉潟公園",
      "category": "park",
      "area": "秋田",
      "city": "秋田市",
      "lat": 39.8132,
      "lng": 140.0699,
      "url": "",
      "conditions": {
        "vaccination_cert": null,
        "size_limit": "",
        "fee": ""
      },
      "caution": "",
      "note": "",
      "sns": [],
      "source": "osm",
      "osm_id": "way/550549223",
      "last_verified": "2026-07-20"
    },
    {
      "id": 17,
      "name": "日本国花苑",
      "category": "park",
      "area": "秋田",
      "city": "井川町",
      "lat": 39.9022,
      "lng": 140.0965,
      "url": "",
      "conditions": {
        "vaccination_cert": null,
        "size_limit": "",
        "fee": ""
      },
      "caution": "",
      "note": "",
      "sns": [],
      "source": "osm",
      "osm_id": "way/550759322",
      "last_verified": "2026-07-20"
    },
    {
      "id": 18,
      "name": "八橋運動公園",
      "category": "park",
      "area": "秋田",
      "city": "秋田市",
      "lat": 39.7208,
      "lng": 140.0961,
      "url": "",
      "conditions": {
        "vaccination_cert": null,
        "size_limit": "",
        "fee": ""
      },
      "caution": "",
      "note": "",
      "sns": [],
      "source": "osm",
      "osm_id": "way/551041265",
      "last_verified": "2026-07-20"
    },
    {
      "id": 19,
      "name": "能代公園",
      "category": "park",
      "area": "秋田",
      "city": "能代市",
      "lat": 40.2134,
      "lng": 140.0179,
      "url": "",
      "conditions": {
        "vaccination_cert": null,
        "size_limit": "",
        "fee": ""
      },
      "caution": "",
      "note": "",
      "sns": [],
      "source": "osm",
      "osm_id": "way/562735338",
      "last_verified": "2026-07-20"
    },
    {
      "id": 20,
      "name": "御所の台ふれあいパーク",
      "category": "park",
      "area": "秋田",
      "city": "八峰町",
      "lat": 40.389,
      "lng": 139.9859,
      "url": "",
      "conditions": {
        "vaccination_cert": null,
        "size_limit": "",
        "fee": ""
      },
      "caution": "",
      "note": "",
      "sns": [],
      "source": "osm",
      "osm_id": "way/567450146",
      "last_verified": "2026-07-20"
    },
    {
      "id": 21,
      "name": "かたまえ山森林公園",
      "category": "park",
      "area": "秋田",
      "city": "仙北市",
      "lat": 39.717,
      "lng": 140.6268,
      "url": "",
      "conditions": {
        "vaccination_cert": null,
        "size_limit": "",
        "fee": ""
      },
      "caution": "",
      "note": "",
      "sns": [],
      "source": "osm",
      "osm_id": "way/594201535",
      "last_verified": "2026-07-20"
    },
    {
      "id": 22,
      "name": "新山公園",
      "category": "park",
      "area": "秋田",
      "city": "由利本荘市",
      "lat": 39.4044,
      "lng": 140.0478,
      "url": "",
      "conditions": {
        "vaccination_cert": null,
        "size_limit": "",
        "fee": ""
      },
      "caution": "",
      "note": "",
      "sns": [],
      "source": "osm",
      "osm_id": "way/599998011",
      "last_verified": "2026-07-20"
    },
    {
      "id": 23,
      "name": "本荘公園",
      "category": "park",
      "area": "秋田",
      "city": "由利本荘市",
      "lat": 39.385,
      "lng": 140.0475,
      "url": "",
      "conditions": {
        "vaccination_cert": null,
        "size_limit": "",
        "fee": ""
      },
      "caution": "",
      "note": "",
      "sns": [],
      "source": "osm",
      "osm_id": "way/623242402",
      "last_verified": "2026-07-20"
    },
    {
      "id": 24,
      "name": "新屋海浜公園",
      "category": "park",
      "area": "秋田",
      "city": "秋田市",
      "lat": 39.6842,
      "lng": 140.0663,
      "url": "",
      "conditions": {
        "vaccination_cert": null,
        "size_limit": "",
        "fee": ""
      },
      "caution": "",
      "note": "",
      "sns": [],
      "source": "osm",
      "osm_id": "way/660843666",
      "last_verified": "2026-07-20"
    },
    {
      "id": 25,
      "name": "桂城公園",
      "category": "park",
      "area": "秋田",
      "city": "大館市",
      "lat": 40.2723,
      "lng": 140.5653,
      "url": "",
      "conditions": {
        "vaccination_cert": null,
        "size_limit": "",
        "fee": ""
      },
      "caution": "",
      "note": "",
      "sns": [],
      "source": "osm",
      "osm_id": "way/710579990",
      "last_verified": "2026-07-20"
    },
    {
      "id": 26,
      "name": "真人公園",
      "category": "park",
      "area": "秋田",
      "city": "横手市",
      "lat": 39.208,
      "lng": 140.5736,
      "url": "",
      "conditions": {
        "vaccination_cert": null,
        "size_limit": "",
        "fee": ""
      },
      "caution": "",
      "note": "",
      "sns": [],
      "source": "osm",
      "osm_id": "way/713191005",
      "last_verified": "2026-07-20"
    },
    {
      "id": 27,
      "name": "美郷町ラベンダー園",
      "category": "park",
      "area": "秋田",
      "city": "美郷町",
      "lat": 39.4546,
      "lng": 140.619,
      "url": "",
      "conditions": {
        "vaccination_cert": null,
        "size_limit": "",
        "fee": ""
      },
      "caution": "",
      "note": "",
      "sns": [],
      "source": "osm",
      "osm_id": "way/72101963",
      "last_verified": "2026-07-20"
    },
    {
      "id": 28,
      "name": "大台野広場",
      "category": "park",
      "area": "秋田",
      "city": "美郷町",
      "lat": 39.4547,
      "lng": 140.6165,
      "url": "https://town.misato.akita.jp",
      "conditions": {
        "vaccination_cert": null,
        "size_limit": "",
        "fee": ""
      },
      "caution": "",
      "note": "",
      "sns": [],
      "source": "osm",
      "osm_id": "way/72101969",
      "last_verified": "2026-07-20",
      "link_broken": true
    },
    {
      "id": 29,
      "name": "大滝山自然公園",
      "category": "park",
      "area": "秋田",
      "city": "秋田市",
      "lat": 39.779,
      "lng": 140.1591,
      "url": "",
      "conditions": {
        "vaccination_cert": null,
        "size_limit": "",
        "fee": ""
      },
      "caution": "",
      "note": "",
      "sns": [],
      "source": "osm",
      "osm_id": "way/736842409",
      "last_verified": "2026-07-20"
    },
    {
      "id": 30,
      "name": "横手公園",
      "category": "park",
      "area": "秋田",
      "city": "横手市",
      "lat": 39.3263,
      "lng": 140.5722,
      "url": "https://www.city.yokote.lg.jp/shisetsu/1005520/1004547.html",
      "conditions": {
        "vaccination_cert": null,
        "size_limit": "",
        "fee": ""
      },
      "caution": "",
      "note": "",
      "sns": [],
      "source": "osm",
      "osm_id": "way/737028385",
      "last_verified": "2026-07-20"
    },
    {
      "id": 31,
      "name": "土崎街区公園",
      "category": "park",
      "area": "秋田",
      "city": "秋田市",
      "lat": 39.7573,
      "lng": 140.0718,
      "url": "",
      "conditions": {
        "vaccination_cert": null,
        "size_limit": "",
        "fee": ""
      },
      "caution": "",
      "note": "",
      "sns": [],
      "source": "osm",
      "osm_id": "way/739764924",
      "last_verified": "2026-07-20"
    },
    {
      "id": 32,
      "name": "「大曲の花火」公園",
      "category": "park",
      "area": "秋田",
      "city": "大仙市",
      "lat": 39.4581,
      "lng": 140.4653,
      "url": "",
      "conditions": {
        "vaccination_cert": null,
        "size_limit": "",
        "fee": ""
      },
      "caution": "",
      "note": "",
      "sns": [],
      "source": "osm",
      "osm_id": "way/741393804",
      "last_verified": "2026-07-20"
    },
    {
      "id": 33,
      "name": "南由利原　青少年旅行村",
      "category": "park",
      "area": "秋田",
      "city": "由利本荘市",
      "lat": 39.2405,
      "lng": 140.0652,
      "url": "",
      "conditions": {
        "vaccination_cert": null,
        "size_limit": "",
        "fee": ""
      },
      "caution": "",
      "note": "",
      "sns": [],
      "source": "osm",
      "osm_id": "way/744275389",
      "last_verified": "2026-07-20"
    },
    {
      "id": 34,
      "name": "鳥海花立高原",
      "category": "park",
      "area": "秋田",
      "city": "由利本荘市",
      "lat": 39.2079,
      "lng": 140.0887,
      "url": "",
      "conditions": {
        "vaccination_cert": null,
        "size_limit": "",
        "fee": ""
      },
      "caution": "",
      "note": "",
      "sns": [],
      "source": "osm",
      "osm_id": "way/744275393",
      "last_verified": "2026-07-20"
    },
    {
      "id": 35,
      "name": "森林公園",
      "category": "park",
      "area": "秋田",
      "city": "秋田市",
      "lat": 39.7893,
      "lng": 140.0535,
      "url": "",
      "conditions": {
        "vaccination_cert": null,
        "size_limit": "",
        "fee": ""
      },
      "caution": "",
      "note": "",
      "sns": [],
      "source": "osm",
      "osm_id": "way/751935226",
      "last_verified": "2026-07-20"
    },
    {
      "id": 36,
      "name": "西目カントリーパーク",
      "category": "park",
      "area": "秋田",
      "city": "由利本荘市",
      "lat": 39.344,
      "lng": 140.003,
      "url": "",
      "conditions": {
        "vaccination_cert": null,
        "size_limit": "",
        "fee": ""
      },
      "caution": "",
      "note": "",
      "sns": [],
      "source": "osm",
      "osm_id": "way/753955600",
      "last_verified": "2026-07-20"
    },
    {
      "id": 37,
      "name": "仁賀保運動公園",
      "category": "park",
      "area": "秋田",
      "city": "にかほ市",
      "lat": 39.2871,
      "lng": 139.9637,
      "url": "",
      "conditions": {
        "vaccination_cert": null,
        "size_limit": "",
        "fee": ""
      },
      "caution": "",
      "note": "",
      "sns": [],
      "source": "osm",
      "osm_id": "way/755464721",
      "last_verified": "2026-07-20"
    },
    {
      "id": 38,
      "name": "金沢公園",
      "category": "park",
      "area": "秋田",
      "city": "横手市",
      "lat": 39.3732,
      "lng": 140.5715,
      "url": "https://www.city.yokote.lg.jp/shisetsu/1005520/1004548.html",
      "conditions": {
        "vaccination_cert": null,
        "size_limit": "",
        "fee": ""
      },
      "caution": "",
      "note": "",
      "sns": [],
      "source": "osm",
      "osm_id": "way/760902998",
      "last_verified": "2026-07-20"
    },
    {
      "id": 39,
      "name": "平安の風わたる公園",
      "category": "park",
      "area": "秋田",
      "city": "横手市",
      "lat": 39.3644,
      "lng": 140.5544,
      "url": "https://www.city.yokote.lg.jp/shisetsu/1005520/1004549.html",
      "conditions": {
        "vaccination_cert": null,
        "size_limit": "",
        "fee": ""
      },
      "caution": "",
      "note": "",
      "sns": [],
      "source": "osm",
      "osm_id": "way/763118667",
      "last_verified": "2026-07-20"
    },
    {
      "id": 40,
      "name": "浅舞公園",
      "category": "park",
      "area": "秋田",
      "city": "横手市",
      "lat": 39.2598,
      "lng": 140.4927,
      "url": "https://www.city.yokote.lg.jp/shisetsu/1005520/1002600.html",
      "conditions": {
        "vaccination_cert": null,
        "size_limit": "",
        "fee": ""
      },
      "caution": "",
      "note": "",
      "sns": [],
      "source": "osm",
      "osm_id": "way/763125273",
      "last_verified": "2026-07-20"
    },
    {
      "id": 41,
      "name": "楢山明田近隣公園",
      "category": "park",
      "area": "秋田",
      "city": "秋田市",
      "lat": 39.7075,
      "lng": 140.1328,
      "url": "",
      "conditions": {
        "vaccination_cert": null,
        "size_limit": "",
        "fee": ""
      },
      "caution": "",
      "note": "",
      "sns": [],
      "source": "osm",
      "osm_id": "way/775457360",
      "last_verified": "2026-07-20"
    },
    {
      "id": 42,
      "name": "出戸浜いこいの森",
      "category": "park",
      "area": "秋田",
      "city": "潟上市",
      "lat": 39.8543,
      "lng": 140.0081,
      "url": "",
      "conditions": {
        "vaccination_cert": null,
        "size_limit": "",
        "fee": ""
      },
      "caution": "",
      "note": "",
      "sns": [],
      "source": "osm",
      "osm_id": "way/793092358",
      "last_verified": "2026-07-20"
    },
    {
      "id": 43,
      "name": "プレイパーク戸瀬",
      "category": "park",
      "area": "秋田",
      "city": "仙北市",
      "lat": 39.896,
      "lng": 140.6908,
      "url": "",
      "conditions": {
        "vaccination_cert": null,
        "size_limit": "",
        "fee": ""
      },
      "caution": "",
      "note": "",
      "sns": [],
      "source": "osm",
      "osm_id": "way/793816666",
      "last_verified": "2026-07-20"
    },
    {
      "id": 44,
      "name": "大森公園",
      "category": "park",
      "area": "秋田",
      "city": "横手市",
      "lat": 39.3525,
      "lng": 140.4343,
      "url": "",
      "conditions": {
        "vaccination_cert": null,
        "size_limit": "",
        "fee": ""
      },
      "caution": "",
      "note": "",
      "sns": [],
      "source": "osm",
      "osm_id": "way/794845710",
      "last_verified": "2026-07-20"
    },
    {
      "id": 45,
      "name": "一つ森公園",
      "category": "park",
      "area": "秋田",
      "city": "秋田市",
      "lat": 39.698,
      "lng": 140.1399,
      "url": "",
      "conditions": {
        "vaccination_cert": null,
        "size_limit": "",
        "fee": ""
      },
      "caution": "",
      "note": "",
      "sns": [],
      "source": "osm",
      "osm_id": "way/90640111",
      "last_verified": "2026-07-20"
    }
  ]
}
