{
  "no": "07",
  "pref_name": "fukushima",
  "spots": [
    {
      "id": 1,
      "name": "WANわんクラブ",
      "category": "dog_run",
      "area": "福島",
      "city": "会津若松市",
      "lat": 37.4726,
      "lng": 139.8874,
      "url": "",
      "conditions": {
        "vaccination_cert": null,
        "size_limit": "",
        "fee": ""
      },
      "caution": "",
      "note": "",
      "sns": [],
      "source": "osm",
      "osm_id": "way/289570605",
      "last_verified": "2026-07-20"
    },
    {
      "id": 2,
      "name": "ドッグラン",
      "category": "dog_run",
      "area": "福島",
      "city": "磐梯町",
      "lat": 37.5634,
      "lng": 139.9876,
      "url": "",
      "conditions": {
        "vaccination_cert": null,
        "size_limit": "",
        "fee": ""
      },
      "caution": "",
      "note": "",
      "sns": [],
      "source": "osm",
      "osm_id": "way/508665247",
      "last_verified": "2026-07-20"
    },
    {
      "id": 3,
      "name": "ドッグラン",
      "category": "dog_run",
      "area": "福島",
      "city": "南相馬市",
      "lat": 37.7147,
      "lng": 140.9228,
      "url": "",
      "conditions": {
        "vaccination_cert": null,
        "size_limit": "",
        "fee": ""
      },
      "caution": "",
      "note": "",
      "sns": [],
      "source": "osm",
      "osm_id": "way/766105403",
      "last_verified": "2026-07-20"
    },
    {
      "id": 4,
      "name": "いわき公園",
      "category": "park",
      "area": "福島",
      "city": "いわき市",
      "lat": 37.0119,
      "lng": 140.9214,
      "url": "",
      "conditions": {
        "vaccination_cert": null,
        "size_limit": "",
        "fee": ""
      },
      "caution": "",
      "note": "",
      "sns": [],
      "source": "osm",
      "osm_id": "relation/1481217",
      "last_verified": "2026-07-20"
    },
    {
      "id": 5,
      "name": "東ヶ丘公園",
      "category": "park",
      "area": "福島",
      "city": "南相馬市",
      "lat": 37.627,
      "lng": 140.9677,
      "url": "",
      "conditions": {
        "vaccination_cert": null,
        "size_limit": "",
        "fee": ""
      },
      "caution": "",
      "note": "",
      "sns": [],
      "source": "osm",
      "osm_id": "relation/17773724",
      "last_verified": "2026-07-20"
    },
    {
      "id": 6,
      "name": "会津レクリエーション公園",
      "category": "park",
      "area": "福島",
      "city": "会津若松市",
      "lat": 37.5142,
      "lng": 140.016,
      "url": "",
      "conditions": {
        "vaccination_cert": null,
        "size_limit": "",
        "fee": ""
      },
      "caution": "",
      "note": "",
      "sns": [],
      "source": "osm",
      "osm_id": "relation/9671830",
      "last_verified": "2026-07-20"
    },
    {
      "id": 7,
      "name": "古舘公園",
      "category": "park",
      "area": "福島",
      "city": "福島市",
      "lat": 37.8308,
      "lng": 140.4524,
      "url": "",
      "conditions": {
        "vaccination_cert": null,
        "size_limit": "",
        "fee": ""
      },
      "caution": "",
      "note": "",
      "sns": [],
      "source": "osm",
      "osm_id": "way/1162980454",
      "last_verified": "2026-07-20"
    },
    {
      "id": 8,
      "name": "愛宕山公園",
      "category": "park",
      "area": "福島",
      "city": "福島市",
      "lat": 37.8347,
      "lng": 140.4554,
      "url": "",
      "conditions": {
        "vaccination_cert": null,
        "size_limit": "",
        "fee": ""
      },
      "caution": "",
      "note": "",
      "sns": [],
      "source": "osm",
      "osm_id": "way/1164645770",
      "last_verified": "2026-07-20"
    },
    {
      "id": 9,
      "name": "平成記念郡山こどものもり公園",
      "category": "park",
      "area": "福島",
      "city": "郡山市",
      "lat": 37.433,
      "lng": 140.3969,
      "url": "",
      "conditions": {
        "vaccination_cert": null,
        "size_limit": "",
        "fee": ""
      },
      "caution": "",
      "note": "",
      "sns": [],
      "source": "osm",
      "osm_id": "way/1261392229",
      "last_verified": "2026-07-20"
    },
    {
      "id": 10,
      "name": "向山森林公園",
      "category": "park",
      "area": "福島",
      "city": "三春町",
      "lat": 37.4003,
      "lng": 140.4766,
      "url": "",
      "conditions": {
        "vaccination_cert": null,
        "size_limit": "",
        "fee": ""
      },
      "caution": "",
      "note": "",
      "sns": [],
      "source": "osm",
      "osm_id": "way/1265775421",
      "last_verified": "2026-07-20"
    },
    {
      "id": 11,
      "name": "東ヶ丘公園",
      "category": "park",
      "area": "福島",
      "city": "南相馬市",
      "lat": 37.6287,
      "lng": 140.9686,
      "url": "",
      "conditions": {
        "vaccination_cert": null,
        "size_limit": "",
        "fee": ""
      },
      "caution": "",
      "note": "",
      "sns": [],
      "source": "osm",
      "osm_id": "way/1296655821",
      "last_verified": "2026-07-20"
    },
    {
      "id": 12,
      "name": "大安場史跡公園",
      "category": "park",
      "area": "福島",
      "city": "郡山市",
      "lat": 37.3562,
      "lng": 140.4043,
      "url": "",
      "conditions": {
        "vaccination_cert": null,
        "size_limit": "",
        "fee": ""
      },
      "caution": "",
      "note": "",
      "sns": [],
      "source": "osm",
      "osm_id": "way/239166674",
      "last_verified": "2026-07-20"
    },
    {
      "id": 13,
      "name": "あづま総合運動公園",
      "category": "park",
      "area": "福島",
      "city": "福島市",
      "lat": 37.7255,
      "lng": 140.3694,
      "url": "",
      "conditions": {
        "vaccination_cert": null,
        "size_limit": "",
        "fee": ""
      },
      "caution": "",
      "note": "",
      "sns": [],
      "source": "osm",
      "osm_id": "way/243546219",
      "last_verified": "2026-07-20"
    },
    {
      "id": 14,
      "name": "開成山公園",
      "category": "park",
      "area": "福島",
      "city": "郡山市",
      "lat": 37.3978,
      "lng": 140.3582,
      "url": "",
      "conditions": {
        "vaccination_cert": null,
        "size_limit": "",
        "fee": ""
      },
      "caution": "",
      "note": "",
      "sns": [],
      "source": "osm",
      "osm_id": "way/275609255",
      "last_verified": "2026-07-20"
    },
    {
      "id": 15,
      "name": "ジュピアランド ひらた",
      "category": "park",
      "area": "福島",
      "city": "平田村",
      "lat": 37.2619,
      "lng": 140.5469,
      "url": "",
      "conditions": {
        "vaccination_cert": null,
        "size_limit": "",
        "fee": ""
      },
      "caution": "",
      "note": "",
      "sns": [],
      "source": "osm",
      "osm_id": "way/279680238",
      "last_verified": "2026-07-20"
    },
    {
      "id": 16,
      "name": "荒池公園",
      "category": "park",
      "area": "福島",
      "city": "郡山市",
      "lat": 37.3907,
      "lng": 140.3747,
      "url": "",
      "conditions": {
        "vaccination_cert": null,
        "size_limit": "",
        "fee": ""
      },
      "caution": "",
      "note": "",
      "sns": [],
      "source": "osm",
      "osm_id": "way/302712010",
      "last_verified": "2026-07-20"
    },
    {
      "id": 17,
      "name": "大島東公園",
      "category": "park",
      "area": "福島",
      "city": "郡山市",
      "lat": 37.4093,
      "lng": 140.3625,
      "url": "",
      "conditions": {
        "vaccination_cert": null,
        "size_limit": "",
        "fee": ""
      },
      "caution": "",
      "note": "",
      "sns": [],
      "source": "osm",
      "osm_id": "way/304928132",
      "last_verified": "2026-07-20"
    },
    {
      "id": 18,
      "name": "麓山公園",
      "category": "park",
      "area": "福島",
      "city": "郡山市",
      "lat": 37.3943,
      "lng": 140.3755,
      "url": "",
      "conditions": {
        "vaccination_cert": null,
        "size_limit": "",
        "fee": ""
      },
      "caution": "",
      "note": "",
      "sns": [],
      "source": "osm",
      "osm_id": "way/305114080",
      "last_verified": "2026-07-20"
    },
    {
      "id": 19,
      "name": "五百淵公園",
      "category": "park",
      "area": "福島",
      "city": "郡山市",
      "lat": 37.38,
      "lng": 140.3625,
      "url": "",
      "conditions": {
        "vaccination_cert": null,
        "size_limit": "",
        "fee": ""
      },
      "caution": "",
      "note": "",
      "sns": [],
      "source": "osm",
      "osm_id": "way/308194254",
      "last_verified": "2026-07-20"
    },
    {
      "id": 20,
      "name": "花見山公園",
      "category": "park",
      "area": "福島",
      "city": "福島市",
      "lat": 37.7387,
      "lng": 140.4959,
      "url": "",
      "conditions": {
        "vaccination_cert": null,
        "size_limit": "",
        "fee": "無料"
      },
      "caution": "",
      "note": "",
      "sns": [],
      "source": "osm",
      "osm_id": "way/338584533",
      "last_verified": "2026-07-20"
    },
    {
      "id": 21,
      "name": "鶴ヶ城公園",
      "category": "park",
      "area": "福島",
      "city": "会津若松市",
      "lat": 37.4876,
      "lng": 139.932,
      "url": "",
      "conditions": {
        "vaccination_cert": null,
        "size_limit": "",
        "fee": ""
      },
      "caution": "",
      "note": "",
      "sns": [],
      "source": "osm",
      "osm_id": "way/36809202",
      "last_verified": "2026-07-20"
    },
    {
      "id": 22,
      "name": "会津総合運動公園",
      "category": "park",
      "area": "福島",
      "city": "会津若松市",
      "lat": 37.4612,
      "lng": 139.9267,
      "url": "",
      "conditions": {
        "vaccination_cert": null,
        "size_limit": "",
        "fee": ""
      },
      "caution": "",
      "note": "",
      "sns": [],
      "source": "osm",
      "osm_id": "way/378246269",
      "last_verified": "2026-07-20"
    },
    {
      "id": 23,
      "name": "逢瀬公園",
      "category": "park",
      "area": "福島",
      "city": "郡山市",
      "lat": 37.4125,
      "lng": 140.2752,
      "url": "",
      "conditions": {
        "vaccination_cert": null,
        "size_limit": "",
        "fee": ""
      },
      "caution": "",
      "note": "",
      "sns": [],
      "source": "osm",
      "osm_id": "way/437223323",
      "last_verified": "2026-07-20"
    },
    {
      "id": 24,
      "name": "御殿場公園",
      "category": "park",
      "area": "福島",
      "city": "喜多方市",
      "lat": 37.5974,
      "lng": 139.8815,
      "url": "",
      "conditions": {
        "vaccination_cert": null,
        "size_limit": "",
        "fee": ""
      },
      "caution": "",
      "note": "",
      "sns": [],
      "source": "osm",
      "osm_id": "way/441429582",
      "last_verified": "2026-07-20"
    },
    {
      "id": 25,
      "name": "三崎公園",
      "category": "park",
      "area": "福島",
      "city": "いわき市",
      "lat": 36.9397,
      "lng": 140.9206,
      "url": "",
      "conditions": {
        "vaccination_cert": null,
        "size_limit": "",
        "fee": ""
      },
      "caution": "",
      "note": "",
      "sns": [],
      "source": "osm",
      "osm_id": "way/477076896",
      "last_verified": "2026-07-20"
    },
    {
      "id": 26,
      "name": "新舞子浜公園",
      "category": "park",
      "area": "福島",
      "city": "いわき市",
      "lat": 37.0383,
      "lng": 140.9715,
      "url": "",
      "conditions": {
        "vaccination_cert": null,
        "size_limit": "",
        "fee": ""
      },
      "caution": "",
      "note": "",
      "sns": [],
      "source": "osm",
      "osm_id": "way/477076904",
      "last_verified": "2026-07-20"
    },
    {
      "id": 27,
      "name": "いわき海浜自然の家",
      "category": "park",
      "area": "福島",
      "city": "いわき市",
      "lat": 37.1223,
      "lng": 140.9857,
      "url": "",
      "conditions": {
        "vaccination_cert": null,
        "size_limit": "",
        "fee": ""
      },
      "caution": "",
      "note": "",
      "sns": [],
      "source": "osm",
      "osm_id": "way/477076905",
      "last_verified": "2026-07-20"
    },
    {
      "id": 28,
      "name": "松ケ岡公園",
      "category": "park",
      "area": "福島",
      "city": "いわき市",
      "lat": 37.0554,
      "lng": 140.8821,
      "url": "",
      "conditions": {
        "vaccination_cert": null,
        "size_limit": "",
        "fee": ""
      },
      "caution": "",
      "note": "",
      "sns": [],
      "source": "osm",
      "osm_id": "way/477128068",
      "last_verified": "2026-07-20"
    },
    {
      "id": 29,
      "name": "21世紀の森公園",
      "category": "park",
      "area": "福島",
      "city": "いわき市",
      "lat": 37.0156,
      "lng": 140.8615,
      "url": "",
      "conditions": {
        "vaccination_cert": null,
        "size_limit": "",
        "fee": ""
      },
      "caution": "",
      "note": "",
      "sns": [],
      "source": "osm",
      "osm_id": "way/477128070",
      "last_verified": "2026-07-20"
    },
    {
      "id": 30,
      "name": "上荒川公園",
      "category": "park",
      "area": "福島",
      "city": "いわき市",
      "lat": 37.033,
      "lng": 140.8966,
      "url": "",
      "conditions": {
        "vaccination_cert": null,
        "size_limit": "",
        "fee": ""
      },
      "caution": "",
      "note": "",
      "sns": [],
      "source": "osm",
      "osm_id": "way/477128076",
      "last_verified": "2026-07-20"
    },
    {
      "id": 31,
      "name": "フラワーセンター",
      "category": "park",
      "area": "福島",
      "city": "いわき市",
      "lat": 37.0909,
      "lng": 140.9048,
      "url": "",
      "conditions": {
        "vaccination_cert": null,
        "size_limit": "",
        "fee": ""
      },
      "caution": "",
      "note": "",
      "sns": [],
      "source": "osm",
      "osm_id": "way/477128077",
      "last_verified": "2026-07-20"
    },
    {
      "id": 32,
      "name": "新浜公園",
      "category": "park",
      "area": "福島",
      "city": "福島市",
      "lat": 37.7581,
      "lng": 140.4687,
      "url": "",
      "conditions": {
        "vaccination_cert": null,
        "size_limit": "",
        "fee": ""
      },
      "caution": "",
      "note": "",
      "sns": [],
      "source": "osm",
      "osm_id": "way/502616309",
      "last_verified": "2026-07-20"
    },
    {
      "id": 33,
      "name": "森合運動公園",
      "category": "park",
      "area": "福島",
      "city": "福島市",
      "lat": 37.7653,
      "lng": 140.4489,
      "url": "",
      "conditions": {
        "vaccination_cert": null,
        "size_limit": "",
        "fee": ""
      },
      "caution": "",
      "note": "",
      "sns": [],
      "source": "osm",
      "osm_id": "way/502616316",
      "last_verified": "2026-07-20"
    },
    {
      "id": 34,
      "name": "野田中央公園",
      "category": "park",
      "area": "福島",
      "city": "福島市",
      "lat": 37.7606,
      "lng": 140.4374,
      "url": "",
      "conditions": {
        "vaccination_cert": null,
        "size_limit": "",
        "fee": ""
      },
      "caution": "",
      "note": "",
      "sns": [],
      "source": "osm",
      "osm_id": "way/518086668",
      "last_verified": "2026-07-20"
    },
    {
      "id": 35,
      "name": "西部公園",
      "category": "park",
      "area": "福島",
      "city": "郡山市",
      "lat": 37.4008,
      "lng": 140.338,
      "url": "",
      "conditions": {
        "vaccination_cert": null,
        "size_limit": "",
        "fee": ""
      },
      "caution": "",
      "note": "",
      "sns": [],
      "source": "osm",
      "osm_id": "way/553156049",
      "last_verified": "2026-07-20"
    },
    {
      "id": 36,
      "name": "みずいろ公園",
      "category": "park",
      "area": "福島",
      "city": "本宮市",
      "lat": 37.5185,
      "lng": 140.4006,
      "url": "",
      "conditions": {
        "vaccination_cert": null,
        "size_limit": "",
        "fee": ""
      },
      "caution": "",
      "note": "",
      "sns": [],
      "source": "osm",
      "osm_id": "way/553868712",
      "last_verified": "2026-07-20"
    },
    {
      "id": 37,
      "name": "十六沼公園",
      "category": "park",
      "area": "福島",
      "city": "福島市",
      "lat": 37.8161,
      "lng": 140.4165,
      "url": "",
      "conditions": {
        "vaccination_cert": null,
        "size_limit": "",
        "fee": ""
      },
      "caution": "",
      "note": "",
      "sns": [],
      "source": "osm",
      "osm_id": "way/555946676",
      "last_verified": "2026-07-20"
    },
    {
      "id": 38,
      "name": "浄土松公園",
      "category": "park",
      "area": "福島",
      "city": "郡山市",
      "lat": 37.389,
      "lng": 140.2763,
      "url": "",
      "conditions": {
        "vaccination_cert": null,
        "size_limit": "",
        "fee": ""
      },
      "caution": "",
      "note": "",
      "sns": [],
      "source": "osm",
      "osm_id": "way/641594704",
      "last_verified": "2026-07-20"
    },
    {
      "id": 39,
      "name": "四季の里",
      "category": "park",
      "area": "福島",
      "city": "福島市",
      "lat": 37.7131,
      "lng": 140.3625,
      "url": "",
      "conditions": {
        "vaccination_cert": null,
        "size_limit": "",
        "fee": ""
      },
      "caution": "",
      "note": "",
      "sns": [],
      "source": "osm",
      "osm_id": "way/722618613",
      "last_verified": "2026-07-20"
    },
    {
      "id": 40,
      "name": "共楽公園",
      "category": "park",
      "area": "福島",
      "city": "福島市",
      "lat": 37.7174,
      "lng": 140.4604,
      "url": "",
      "conditions": {
        "vaccination_cert": null,
        "size_limit": "",
        "fee": ""
      },
      "caution": "",
      "note": "",
      "sns": [],
      "source": "osm",
      "osm_id": "way/723020115",
      "last_verified": "2026-07-20"
    },
    {
      "id": 41,
      "name": "UFOの里",
      "category": "park",
      "area": "福島",
      "city": "福島市",
      "lat": 37.6889,
      "lng": 140.5354,
      "url": "",
      "conditions": {
        "vaccination_cert": null,
        "size_limit": "",
        "fee": ""
      },
      "caution": "",
      "note": "",
      "sns": [],
      "source": "osm",
      "osm_id": "way/723112036",
      "last_verified": "2026-07-20"
    },
    {
      "id": 42,
      "name": "紅葉山公園",
      "category": "park",
      "area": "福島",
      "city": "福島市",
      "lat": 37.7506,
      "lng": 140.4689,
      "url": "",
      "conditions": {
        "vaccination_cert": null,
        "size_limit": "",
        "fee": ""
      },
      "caution": "",
      "note": "",
      "sns": [],
      "source": "osm",
      "osm_id": "way/907275015",
      "last_verified": "2026-07-20"
    }
  ]
}
