{
  "no": "14",
  "pref_name": "kanagawa",
  "spots": [
    {
      "id": 1,
      "name": "寄七つ星ドッグラン",
      "category": "dog_run",
      "area": "神奈川",
      "city": "松田町",
      "lat": 35.3843,
      "lng": 139.131,
      "url": "",
      "conditions": {
        "vaccination_cert": null,
        "size_limit": "",
        "fee": ""
      },
      "caution": "",
      "note": "",
      "sns": [],
      "source": "osm",
      "osm_id": "node/12696895549",
      "last_verified": "2026-07-20"
    },
    {
      "id": 2,
      "name": "わんちゃん遊歩道",
      "category": "dog_run",
      "area": "神奈川",
      "city": "海老名市",
      "lat": 35.4322,
      "lng": 139.4022,
      "url": "",
      "conditions": {
        "vaccination_cert": null,
        "size_limit": "",
        "fee": ""
      },
      "caution": "",
      "note": "",
      "sns": [],
      "source": "osm",
      "osm_id": "node/1988295171",
      "last_verified": "2026-07-20"
    },
    {
      "id": 3,
      "name": "ドッグラン",
      "category": "dog_run",
      "area": "神奈川",
      "city": "横浜市港北区",
      "lat": 35.5128,
      "lng": 139.6015,
      "url": "",
      "conditions": {
        "vaccination_cert": null,
        "size_limit": "",
        "fee": ""
      },
      "caution": "",
      "note": "",
      "sns": [],
      "source": "osm",
      "osm_id": "way/1189962084",
      "last_verified": "2026-07-20"
    },
    {
      "id": 4,
      "name": "東光寺ペット霊園 ドッグラン",
      "category": "dog_run",
      "area": "神奈川",
      "city": "横浜市保土ケ谷区",
      "lat": 35.4743,
      "lng": 139.579,
      "url": "",
      "conditions": {
        "vaccination_cert": null,
        "size_limit": "",
        "fee": ""
      },
      "caution": "",
      "note": "",
      "sns": [],
      "source": "osm",
      "osm_id": "way/1209735900",
      "last_verified": "2026-07-20"
    },
    {
      "id": 5,
      "name": "WANderLAND",
      "category": "dog_run",
      "area": "神奈川",
      "city": "横須賀市",
      "lat": 35.2533,
      "lng": 139.6175,
      "url": "https://www.instagram.com/wanderland_minamihayama/",
      "conditions": {
        "vaccination_cert": null,
        "size_limit": "",
        "fee": "有料"
      },
      "caution": "",
      "note": "",
      "sns": [],
      "source": "osm",
      "osm_id": "way/1239524242",
      "last_verified": "2026-07-20"
    },
    {
      "id": 6,
      "name": "麻布大学 Wind Chimes",
      "category": "dog_run",
      "area": "神奈川",
      "city": "相模原市中央区",
      "lat": 35.5755,
      "lng": 139.3911,
      "url": "",
      "conditions": {
        "vaccination_cert": null,
        "size_limit": "",
        "fee": ""
      },
      "caution": "",
      "note": "",
      "sns": [],
      "source": "osm",
      "osm_id": "way/1373619199",
      "last_verified": "2026-07-20"
    },
    {
      "id": 7,
      "name": "ドッグラン",
      "category": "dog_run",
      "area": "神奈川",
      "city": "相模原市中央区",
      "lat": 35.5755,
      "lng": 139.3912,
      "url": "",
      "conditions": {
        "vaccination_cert": null,
        "size_limit": "",
        "fee": ""
      },
      "caution": "",
      "note": "",
      "sns": [],
      "source": "osm",
      "osm_id": "way/1445921791",
      "last_verified": "2026-07-20"
    },
    {
      "id": 8,
      "name": "新杉田公園ドッグラン",
      "category": "dog_run",
      "area": "神奈川",
      "city": "横浜市磯子区",
      "lat": 35.3826,
      "lng": 139.6252,
      "url": "",
      "conditions": {
        "vaccination_cert": null,
        "size_limit": "",
        "fee": ""
      },
      "caution": "",
      "note": "",
      "sns": [],
      "source": "osm",
      "osm_id": "way/311524792",
      "last_verified": "2026-07-20"
    },
    {
      "id": 9,
      "name": "ふれあいの森ドッグラン",
      "category": "dog_run",
      "area": "神奈川",
      "city": "大和市",
      "lat": 35.4696,
      "lng": 139.4493,
      "url": "http://f-dogrun.jp/",
      "conditions": {
        "vaccination_cert": null,
        "size_limit": "",
        "fee": ""
      },
      "caution": "",
      "note": "",
      "sns": [],
      "source": "osm",
      "osm_id": "way/482808134",
      "last_verified": "2026-07-20"
    },
    {
      "id": 10,
      "name": "ワンコパーク",
      "category": "dog_run",
      "area": "神奈川",
      "city": "横浜市都筑区",
      "lat": 35.561,
      "lng": 139.568,
      "url": "",
      "conditions": {
        "vaccination_cert": null,
        "size_limit": "",
        "fee": ""
      },
      "caution": "",
      "note": "",
      "sns": [],
      "source": "osm",
      "osm_id": "way/873316510",
      "last_verified": "2026-07-20"
    },
    {
      "id": 11,
      "name": "宮ヶ瀬湖畔園地",
      "category": "park",
      "area": "神奈川",
      "city": "清川村",
      "lat": 35.5224,
      "lng": 139.2252,
      "url": "",
      "conditions": {
        "vaccination_cert": null,
        "size_limit": "",
        "fee": ""
      },
      "caution": "",
      "note": "",
      "sns": [],
      "source": "osm",
      "osm_id": "relation/10463147",
      "last_verified": "2026-07-20"
    },
    {
      "id": 12,
      "name": "大倉山公園",
      "category": "park",
      "area": "神奈川",
      "city": "横浜市港北区",
      "lat": 35.5252,
      "lng": 139.627,
      "url": "",
      "conditions": {
        "vaccination_cert": null,
        "size_limit": "",
        "fee": ""
      },
      "caution": "",
      "note": "",
      "sns": [],
      "source": "osm",
      "osm_id": "relation/15617963",
      "last_verified": "2026-07-20"
    },
    {
      "id": 13,
      "name": "東扇島東公園",
      "category": "park",
      "area": "神奈川",
      "city": "川崎市川崎区",
      "lat": 35.5045,
      "lng": 139.7736,
      "url": "",
      "conditions": {
        "vaccination_cert": null,
        "size_limit": "",
        "fee": ""
      },
      "caution": "",
      "note": "",
      "sns": [],
      "source": "osm",
      "osm_id": "relation/15635177",
      "last_verified": "2026-07-20"
    },
    {
      "id": 14,
      "name": "秦野市カルチャーパーク",
      "category": "park",
      "area": "神奈川",
      "city": "秦野市",
      "lat": 35.38,
      "lng": 139.2029,
      "url": "https://shisetsu.mizuno.jp/m-7506-0002",
      "conditions": {
        "vaccination_cert": null,
        "size_limit": "",
        "fee": ""
      },
      "caution": "",
      "note": "",
      "sns": [],
      "source": "osm",
      "osm_id": "relation/17993569",
      "last_verified": "2026-07-20"
    },
    {
      "id": 15,
      "name": "東山公園",
      "category": "park",
      "area": "神奈川",
      "city": "綾瀬市",
      "lat": 35.4354,
      "lng": 139.4267,
      "url": "",
      "conditions": {
        "vaccination_cert": null,
        "size_limit": "",
        "fee": ""
      },
      "caution": "",
      "note": "",
      "sns": [],
      "source": "osm",
      "osm_id": "relation/18615357",
      "last_verified": "2026-07-20"
    },
    {
      "id": 16,
      "name": "綾南公園",
      "category": "park",
      "area": "神奈川",
      "city": "綾瀬市",
      "lat": 35.4188,
      "lng": 139.4451,
      "url": "",
      "conditions": {
        "vaccination_cert": null,
        "size_limit": "",
        "fee": ""
      },
      "caution": "",
      "note": "",
      "sns": [],
      "source": "osm",
      "osm_id": "relation/18630422",
      "last_verified": "2026-07-20"
    },
    {
      "id": 17,
      "name": "大磯城山公園",
      "category": "park",
      "area": "神奈川",
      "city": "大磯町",
      "lat": 35.3045,
      "lng": 139.2905,
      "url": "https://www.kanagawa-park.or.jp/ooisojoyama/",
      "conditions": {
        "vaccination_cert": null,
        "size_limit": "",
        "fee": ""
      },
      "caution": "",
      "note": "",
      "sns": [],
      "source": "osm",
      "osm_id": "relation/19176751",
      "last_verified": "2026-07-20"
    },
    {
      "id": 18,
      "name": "若宮公園",
      "category": "park",
      "area": "神奈川",
      "city": "厚木市",
      "lat": 35.441,
      "lng": 139.3112,
      "url": "",
      "conditions": {
        "vaccination_cert": null,
        "size_limit": "",
        "fee": ""
      },
      "caution": "",
      "note": "",
      "sns": [],
      "source": "osm",
      "osm_id": "relation/19206137",
      "last_verified": "2026-07-20"
    },
    {
      "id": 19,
      "name": "長浜公園",
      "category": "park",
      "area": "神奈川",
      "city": "横浜市金沢区",
      "lat": 35.3609,
      "lng": 139.6363,
      "url": "",
      "conditions": {
        "vaccination_cert": null,
        "size_limit": "",
        "fee": ""
      },
      "caution": "",
      "note": "",
      "sns": [],
      "source": "osm",
      "osm_id": "relation/20254317",
      "last_verified": "2026-07-20"
    },
    {
      "id": 20,
      "name": "グランモール公園 眺めの広場",
      "category": "park",
      "area": "神奈川",
      "city": "横浜市西区",
      "lat": 35.4603,
      "lng": 139.6288,
      "url": "",
      "conditions": {
        "vaccination_cert": null,
        "size_limit": "",
        "fee": ""
      },
      "caution": "",
      "note": "",
      "sns": [],
      "source": "osm",
      "osm_id": "relation/6165981",
      "last_verified": "2026-07-20"
    },
    {
      "id": 21,
      "name": "三ツ沢公園",
      "category": "park",
      "area": "神奈川",
      "city": "横浜市神奈川区",
      "lat": 35.4716,
      "lng": 139.6034,
      "url": "",
      "conditions": {
        "vaccination_cert": null,
        "size_limit": "",
        "fee": ""
      },
      "caution": "",
      "note": "",
      "sns": [],
      "source": "osm",
      "osm_id": "relation/6946709",
      "last_verified": "2026-07-20"
    },
    {
      "id": 22,
      "name": "寺尾公園",
      "category": "park",
      "area": "神奈川",
      "city": "綾瀬市",
      "lat": 35.4633,
      "lng": 139.4175,
      "url": "",
      "conditions": {
        "vaccination_cert": null,
        "size_limit": "",
        "fee": ""
      },
      "caution": "",
      "note": "",
      "sns": [],
      "source": "osm",
      "osm_id": "way/1005861102",
      "last_verified": "2026-07-20"
    },
    {
      "id": 23,
      "name": "柳島スポーツ公園",
      "category": "park",
      "area": "神奈川",
      "city": "茅ヶ崎市",
      "lat": 35.3222,
      "lng": 139.3769,
      "url": "",
      "conditions": {
        "vaccination_cert": null,
        "size_limit": "",
        "fee": ""
      },
      "caution": "",
      "note": "",
      "sns": [],
      "source": "osm",
      "osm_id": "way/1034775903",
      "last_verified": "2026-07-20"
    },
    {
      "id": 24,
      "name": "鹿沼公園",
      "category": "park",
      "area": "神奈川",
      "city": "相模原市中央区",
      "lat": 35.5665,
      "lng": 139.3921,
      "url": "",
      "conditions": {
        "vaccination_cert": null,
        "size_limit": "",
        "fee": ""
      },
      "caution": "",
      "note": "",
      "sns": [],
      "source": "osm",
      "osm_id": "way/108469569",
      "last_verified": "2026-07-20"
    },
    {
      "id": 25,
      "name": "茅ヶ崎里山公園",
      "category": "park",
      "area": "神奈川",
      "city": "茅ヶ崎市",
      "lat": 35.378,
      "lng": 139.4181,
      "url": "",
      "conditions": {
        "vaccination_cert": null,
        "size_limit": "",
        "fee": ""
      },
      "caution": "",
      "note": "",
      "sns": [],
      "source": "osm",
      "osm_id": "way/1110234361",
      "last_verified": "2026-07-20"
    },
    {
      "id": 26,
      "name": "天台公園",
      "category": "park",
      "area": "神奈川",
      "city": "海老名市",
      "lat": 35.4592,
      "lng": 139.4152,
      "url": "",
      "conditions": {
        "vaccination_cert": null,
        "size_limit": "",
        "fee": ""
      },
      "caution": "",
      "note": "",
      "sns": [],
      "source": "osm",
      "osm_id": "way/1133995988",
      "last_verified": "2026-07-20"
    },
    {
      "id": 27,
      "name": "本郷ふれあい公園",
      "category": "park",
      "area": "神奈川",
      "city": "海老名市",
      "lat": 35.4078,
      "lng": 139.406,
      "url": "",
      "conditions": {
        "vaccination_cert": null,
        "size_limit": "",
        "fee": ""
      },
      "caution": "",
      "note": "",
      "sns": [],
      "source": "osm",
      "osm_id": "way/1137958498",
      "last_verified": "2026-07-20"
    },
    {
      "id": 28,
      "name": "石垣山一夜城",
      "category": "park",
      "area": "神奈川",
      "city": "小田原市",
      "lat": 35.2358,
      "lng": 139.1281,
      "url": "",
      "conditions": {
        "vaccination_cert": null,
        "size_limit": "",
        "fee": ""
      },
      "caution": "",
      "note": "",
      "sns": [],
      "source": "osm",
      "osm_id": "way/1168866323",
      "last_verified": "2026-07-20"
    },
    {
      "id": 29,
      "name": "山北鉄道公園",
      "category": "park",
      "area": "神奈川",
      "city": "山北町",
      "lat": 35.3603,
      "lng": 139.0785,
      "url": "",
      "conditions": {
        "vaccination_cert": null,
        "size_limit": "",
        "fee": ""
      },
      "caution": "",
      "note": "",
      "sns": [],
      "source": "osm",
      "osm_id": "way/1176522469",
      "last_verified": "2026-07-20"
    },
    {
      "id": 30,
      "name": "寺尾本町公園",
      "category": "park",
      "area": "神奈川",
      "city": "綾瀬市",
      "lat": 35.4557,
      "lng": 139.423,
      "url": "",
      "conditions": {
        "vaccination_cert": null,
        "size_limit": "",
        "fee": ""
      },
      "caution": "",
      "note": "",
      "sns": [],
      "source": "osm",
      "osm_id": "way/1177122148",
      "last_verified": "2026-07-20"
    },
    {
      "id": 31,
      "name": "万葉公園",
      "category": "park",
      "area": "神奈川",
      "city": "湯河原町",
      "lat": 35.1452,
      "lng": 139.0725,
      "url": "",
      "conditions": {
        "vaccination_cert": null,
        "size_limit": "",
        "fee": ""
      },
      "caution": "",
      "note": "",
      "sns": [],
      "source": "osm",
      "osm_id": "way/1217012368",
      "last_verified": "2026-07-20"
    },
    {
      "id": 32,
      "name": "岸根公園",
      "category": "park",
      "area": "神奈川",
      "city": "横浜市港北区",
      "lat": 35.4944,
      "lng": 139.6148,
      "url": "",
      "conditions": {
        "vaccination_cert": null,
        "size_limit": "",
        "fee": ""
      },
      "caution": "",
      "note": "",
      "sns": [],
      "source": "osm",
      "osm_id": "way/123421352",
      "last_verified": "2026-07-20"
    },
    {
      "id": 33,
      "name": "綾北公園",
      "category": "park",
      "area": "神奈川",
      "city": "綾瀬市",
      "lat": 35.4572,
      "lng": 139.4269,
      "url": "",
      "conditions": {
        "vaccination_cert": null,
        "size_limit": "",
        "fee": ""
      },
      "caution": "",
      "note": "",
      "sns": [],
      "source": "osm",
      "osm_id": "way/1253888354",
      "last_verified": "2026-07-20"
    },
    {
      "id": 34,
      "name": "松山北公園",
      "category": "park",
      "area": "神奈川",
      "city": "綾瀬市",
      "lat": 35.4166,
      "lng": 139.4463,
      "url": "",
      "conditions": {
        "vaccination_cert": null,
        "size_limit": "",
        "fee": ""
      },
      "caution": "",
      "note": "",
      "sns": [],
      "source": "osm",
      "osm_id": "way/1254056206",
      "last_verified": "2026-07-20"
    },
    {
      "id": 35,
      "name": "長坂上西公園",
      "category": "park",
      "area": "神奈川",
      "city": "綾瀬市",
      "lat": 35.4177,
      "lng": 139.4362,
      "url": "",
      "conditions": {
        "vaccination_cert": null,
        "size_limit": "",
        "fee": ""
      },
      "caution": "",
      "note": "",
      "sns": [],
      "source": "osm",
      "osm_id": "way/1254074060",
      "last_verified": "2026-07-20"
    },
    {
      "id": 36,
      "name": "山王原公園",
      "category": "park",
      "area": "神奈川",
      "city": "綾瀬市",
      "lat": 35.4405,
      "lng": 139.4182,
      "url": "",
      "conditions": {
        "vaccination_cert": null,
        "size_limit": "",
        "fee": ""
      },
      "caution": "",
      "note": "",
      "sns": [],
      "source": "osm",
      "osm_id": "way/1259558454",
      "last_verified": "2026-07-20"
    },
    {
      "id": 37,
      "name": "神奈川県立篠原園地",
      "category": "park",
      "area": "神奈川",
      "city": "横浜市港北区",
      "lat": 35.4914,
      "lng": 139.6262,
      "url": "",
      "conditions": {
        "vaccination_cert": null,
        "size_limit": "",
        "fee": ""
      },
      "caution": "",
      "note": "",
      "sns": [],
      "source": "osm",
      "osm_id": "way/127600293",
      "last_verified": "2026-07-20"
    },
    {
      "id": 38,
      "name": "寺尾台公園",
      "category": "park",
      "area": "神奈川",
      "city": "綾瀬市",
      "lat": 35.4595,
      "lng": 139.417,
      "url": "",
      "conditions": {
        "vaccination_cert": null,
        "size_limit": "",
        "fee": ""
      },
      "caution": "",
      "note": "",
      "sns": [],
      "source": "osm",
      "osm_id": "way/128284975",
      "last_verified": "2026-07-20"
    },
    {
      "id": 39,
      "name": "釜田第1公園",
      "category": "park",
      "area": "神奈川",
      "city": "綾瀬市",
      "lat": 35.4483,
      "lng": 139.4241,
      "url": "",
      "conditions": {
        "vaccination_cert": null,
        "size_limit": "",
        "fee": ""
      },
      "caution": "",
      "note": "",
      "sns": [],
      "source": "osm",
      "osm_id": "way/128291226",
      "last_verified": "2026-07-20"
    },
    {
      "id": 40,
      "name": "寺尾西公園",
      "category": "park",
      "area": "神奈川",
      "city": "綾瀬市",
      "lat": 35.4507,
      "lng": 139.422,
      "url": "",
      "conditions": {
        "vaccination_cert": null,
        "size_limit": "",
        "fee": ""
      },
      "caution": "",
      "note": "",
      "sns": [],
      "source": "osm",
      "osm_id": "way/128291229",
      "last_verified": "2026-07-20"
    },
    {
      "id": 41,
      "name": "東山公園",
      "category": "park",
      "area": "神奈川",
      "city": "綾瀬市",
      "lat": 35.4358,
      "lng": 139.4266,
      "url": "",
      "conditions": {
        "vaccination_cert": null,
        "size_limit": "",
        "fee": ""
      },
      "caution": "",
      "note": "",
      "sns": [],
      "source": "osm",
      "osm_id": "way/128369392",
      "last_verified": "2026-07-20"
    },
    {
      "id": 42,
      "name": "子ノ神第2公園",
      "category": "park",
      "area": "神奈川",
      "city": "綾瀬市",
      "lat": 35.4567,
      "lng": 139.4246,
      "url": "",
      "conditions": {
        "vaccination_cert": null,
        "size_limit": "",
        "fee": ""
      },
      "caution": "",
      "note": "",
      "sns": [],
      "source": "osm",
      "osm_id": "way/1286952669",
      "last_verified": "2026-07-20"
    },
    {
      "id": 43,
      "name": "久保田児童公園",
      "category": "park",
      "area": "神奈川",
      "city": "綾瀬市",
      "lat": 35.4569,
      "lng": 139.4259,
      "url": "",
      "conditions": {
        "vaccination_cert": null,
        "size_limit": "",
        "fee": ""
      },
      "caution": "",
      "note": "",
      "sns": [],
      "source": "osm",
      "osm_id": "way/1286955705",
      "last_verified": "2026-07-20"
    },
    {
      "id": 44,
      "name": "寺尾台地域公園",
      "category": "park",
      "area": "神奈川",
      "city": "綾瀬市",
      "lat": 35.4601,
      "lng": 139.4181,
      "url": "",
      "conditions": {
        "vaccination_cert": null,
        "size_limit": "",
        "fee": ""
      },
      "caution": "",
      "note": "",
      "sns": [],
      "source": "osm",
      "osm_id": "way/1287552903",
      "last_verified": "2026-07-20"
    },
    {
      "id": 45,
      "name": "比留川第2公園",
      "category": "park",
      "area": "神奈川",
      "city": "綾瀬市",
      "lat": 35.4534,
      "lng": 139.4279,
      "url": "",
      "conditions": {
        "vaccination_cert": null,
        "size_limit": "",
        "fee": ""
      },
      "caution": "",
      "note": "",
      "sns": [],
      "source": "osm",
      "osm_id": "way/1337333926",
      "last_verified": "2026-07-20"
    },
    {
      "id": 46,
      "name": "比留川第3公園",
      "category": "park",
      "area": "神奈川",
      "city": "綾瀬市",
      "lat": 35.4512,
      "lng": 139.4285,
      "url": "",
      "conditions": {
        "vaccination_cert": null,
        "size_limit": "",
        "fee": ""
      },
      "caution": "",
      "note": "",
      "sns": [],
      "source": "osm",
      "osm_id": "way/1337519453",
      "last_verified": "2026-07-20"
    },
    {
      "id": 47,
      "name": "比留川第1公園",
      "category": "park",
      "area": "神奈川",
      "city": "綾瀬市",
      "lat": 35.4541,
      "lng": 139.4276,
      "url": "",
      "conditions": {
        "vaccination_cert": null,
        "size_limit": "",
        "fee": ""
      },
      "caution": "",
      "note": "",
      "sns": [],
      "source": "osm",
      "osm_id": "way/1337519457",
      "last_verified": "2026-07-20"
    },
    {
      "id": 48,
      "name": "道保川公園",
      "category": "park",
      "area": "神奈川",
      "city": "相模原市中央区",
      "lat": 35.5485,
      "lng": 139.373,
      "url": "",
      "conditions": {
        "vaccination_cert": null,
        "size_limit": "",
        "fee": ""
      },
      "caution": "",
      "note": "",
      "sns": [],
      "source": "osm",
      "osm_id": "way/1339791836",
      "last_verified": "2026-07-20"
    },
    {
      "id": 49,
      "name": "鶴ヶ台公園",
      "category": "park",
      "area": "神奈川",
      "city": "綾瀬市",
      "lat": 35.4357,
      "lng": 139.4412,
      "url": "",
      "conditions": {
        "vaccination_cert": null,
        "size_limit": "",
        "fee": ""
      },
      "caution": "",
      "note": "",
      "sns": [],
      "source": "osm",
      "osm_id": "way/1347930849",
      "last_verified": "2026-07-20"
    },
    {
      "id": 50,
      "name": "不聞山公園",
      "category": "park",
      "area": "神奈川",
      "city": "綾瀬市",
      "lat": 35.4241,
      "lng": 139.4399,
      "url": "",
      "conditions": {
        "vaccination_cert": null,
        "size_limit": "",
        "fee": ""
      },
      "caution": "",
      "note": "",
      "sns": [],
      "source": "osm",
      "osm_id": "way/1348398040",
      "last_verified": "2026-07-20"
    },
    {
      "id": 51,
      "name": "不聞山ちびっこ広場",
      "category": "park",
      "area": "神奈川",
      "city": "綾瀬市",
      "lat": 35.4294,
      "lng": 139.44,
      "url": "",
      "conditions": {
        "vaccination_cert": null,
        "size_limit": "",
        "fee": ""
      },
      "caution": "",
      "note": "",
      "sns": [],
      "source": "osm",
      "osm_id": "way/1349482816",
      "last_verified": "2026-07-20"
    },
    {
      "id": 52,
      "name": "鶴島公園",
      "category": "park",
      "area": "神奈川",
      "city": "綾瀬市",
      "lat": 35.4331,
      "lng": 139.4443,
      "url": "",
      "conditions": {
        "vaccination_cert": null,
        "size_limit": "",
        "fee": ""
      },
      "caution": "",
      "note": "",
      "sns": [],
      "source": "osm",
      "osm_id": "way/1349894179",
      "last_verified": "2026-07-20"
    },
    {
      "id": 53,
      "name": "新道公園",
      "category": "park",
      "area": "神奈川",
      "city": "綾瀬市",
      "lat": 35.4301,
      "lng": 139.4342,
      "url": "",
      "conditions": {
        "vaccination_cert": null,
        "size_limit": "",
        "fee": ""
      },
      "caution": "",
      "note": "",
      "sns": [],
      "source": "osm",
      "osm_id": "way/1351119895",
      "last_verified": "2026-07-20"
    },
    {
      "id": 54,
      "name": "茅ヶ崎城址公園",
      "category": "park",
      "area": "神奈川",
      "city": "横浜市都筑区",
      "lat": 35.5447,
      "lng": 139.5792,
      "url": "",
      "conditions": {
        "vaccination_cert": null,
        "size_limit": "",
        "fee": ""
      },
      "caution": "",
      "note": "",
      "sns": [],
      "source": "osm",
      "osm_id": "way/135119936",
      "last_verified": "2026-07-20"
    },
    {
      "id": 55,
      "name": "下落合公園",
      "category": "park",
      "area": "神奈川",
      "city": "綾瀬市",
      "lat": 35.4211,
      "lng": 139.4394,
      "url": "",
      "conditions": {
        "vaccination_cert": null,
        "size_limit": "",
        "fee": ""
      },
      "caution": "",
      "note": "",
      "sns": [],
      "source": "osm",
      "osm_id": "way/1354140279",
      "last_verified": "2026-07-20"
    },
    {
      "id": 56,
      "name": "取内東公園",
      "category": "park",
      "area": "神奈川",
      "city": "綾瀬市",
      "lat": 35.4251,
      "lng": 139.4367,
      "url": "",
      "conditions": {
        "vaccination_cert": null,
        "size_limit": "",
        "fee": ""
      },
      "caution": "",
      "note": "",
      "sns": [],
      "source": "osm",
      "osm_id": "way/1354362197",
      "last_verified": "2026-07-20"
    },
    {
      "id": 57,
      "name": "松山公園",
      "category": "park",
      "area": "神奈川",
      "city": "綾瀬市",
      "lat": 35.4155,
      "lng": 139.4469,
      "url": "",
      "conditions": {
        "vaccination_cert": null,
        "size_limit": "",
        "fee": ""
      },
      "caution": "",
      "note": "",
      "sns": [],
      "source": "osm",
      "osm_id": "way/1355429233",
      "last_verified": "2026-07-20"
    },
    {
      "id": 58,
      "name": "長坂上公園",
      "category": "park",
      "area": "神奈川",
      "city": "綾瀬市",
      "lat": 35.413,
      "lng": 139.4435,
      "url": "",
      "conditions": {
        "vaccination_cert": null,
        "size_limit": "",
        "fee": ""
      },
      "caution": "",
      "note": "",
      "sns": [],
      "source": "osm",
      "osm_id": "way/1355429238",
      "last_verified": "2026-07-20"
    },
    {
      "id": 59,
      "name": "太田和つつじの丘",
      "category": "park",
      "area": "神奈川",
      "city": "横須賀市",
      "lat": 35.2318,
      "lng": 139.643,
      "url": "https://www.city.yokosuka.kanagawa.jp/5560/sisetu/fc00000041.html",
      "conditions": {
        "vaccination_cert": null,
        "size_limit": "",
        "fee": ""
      },
      "caution": "",
      "note": "",
      "sns": [],
      "source": "osm",
      "osm_id": "way/1358116104",
      "last_verified": "2026-07-20"
    },
    {
      "id": 60,
      "name": "もみじ公園",
      "category": "park",
      "area": "神奈川",
      "city": "綾瀬市",
      "lat": 35.417,
      "lng": 139.4499,
      "url": "",
      "conditions": {
        "vaccination_cert": null,
        "size_limit": "",
        "fee": ""
      },
      "caution": "",
      "note": "",
      "sns": [],
      "source": "osm",
      "osm_id": "way/1361935004",
      "last_verified": "2026-07-20"
    },
    {
      "id": 61,
      "name": "やぶね台公園",
      "category": "park",
      "area": "神奈川",
      "city": "綾瀬市",
      "lat": 35.412,
      "lng": 139.451,
      "url": "",
      "conditions": {
        "vaccination_cert": null,
        "size_limit": "",
        "fee": ""
      },
      "caution": "",
      "note": "",
      "sns": [],
      "source": "osm",
      "osm_id": "way/1365424595",
      "last_verified": "2026-07-20"
    },
    {
      "id": 62,
      "name": "松山南公園",
      "category": "park",
      "area": "神奈川",
      "city": "綾瀬市",
      "lat": 35.4141,
      "lng": 139.4464,
      "url": "",
      "conditions": {
        "vaccination_cert": null,
        "size_limit": "",
        "fee": ""
      },
      "caution": "",
      "note": "",
      "sns": [],
      "source": "osm",
      "osm_id": "way/1365793752",
      "last_verified": "2026-07-20"
    },
    {
      "id": 63,
      "name": "やぶね地域公園",
      "category": "park",
      "area": "神奈川",
      "city": "綾瀬市",
      "lat": 35.4108,
      "lng": 139.4477,
      "url": "",
      "conditions": {
        "vaccination_cert": null,
        "size_limit": "",
        "fee": ""
      },
      "caution": "",
      "note": "",
      "sns": [],
      "source": "osm",
      "osm_id": "way/1365793793",
      "last_verified": "2026-07-20"
    },
    {
      "id": 64,
      "name": "若宮公園",
      "category": "park",
      "area": "神奈川",
      "city": "厚木市",
      "lat": 35.441,
      "lng": 139.3112,
      "url": "",
      "conditions": {
        "vaccination_cert": null,
        "size_limit": "",
        "fee": ""
      },
      "caution": "",
      "note": "",
      "sns": [],
      "source": "osm",
      "osm_id": "way/1391740137",
      "last_verified": "2026-07-20"
    },
    {
      "id": 65,
      "name": "稲田公園",
      "category": "park",
      "area": "神奈川",
      "city": "川崎市多摩区",
      "lat": 35.6375,
      "lng": 139.5378,
      "url": "",
      "conditions": {
        "vaccination_cert": null,
        "size_limit": "",
        "fee": ""
      },
      "caution": "",
      "note": "",
      "sns": [],
      "source": "osm",
      "osm_id": "way/147535945",
      "last_verified": "2026-07-20"
    },
    {
      "id": 66,
      "name": "都筑中央公園",
      "category": "park",
      "area": "神奈川",
      "city": "横浜市都筑区",
      "lat": 35.5491,
      "lng": 139.5702,
      "url": "",
      "conditions": {
        "vaccination_cert": null,
        "size_limit": "",
        "fee": ""
      },
      "caution": "",
      "note": "",
      "sns": [],
      "source": "osm",
      "osm_id": "way/148652775",
      "last_verified": "2026-07-20"
    },
    {
      "id": 67,
      "name": "南足柄市運動公園",
      "category": "park",
      "area": "神奈川",
      "city": "南足柄市",
      "lat": 35.342,
      "lng": 139.0963,
      "url": "",
      "conditions": {
        "vaccination_cert": null,
        "size_limit": "",
        "fee": ""
      },
      "caution": "",
      "note": "",
      "sns": [],
      "source": "osm",
      "osm_id": "way/1524219115",
      "last_verified": "2026-07-20"
    },
    {
      "id": 68,
      "name": "淵野辺公園",
      "category": "park",
      "area": "神奈川",
      "city": "相模原市中央区",
      "lat": 35.5544,
      "lng": 139.3913,
      "url": "",
      "conditions": {
        "vaccination_cert": null,
        "size_limit": "",
        "fee": ""
      },
      "caution": "",
      "note": "",
      "sns": [],
      "source": "osm",
      "osm_id": "way/152610498",
      "last_verified": "2026-07-20"
    },
    {
      "id": 69,
      "name": "根恩馬公園",
      "category": "park",
      "area": "神奈川",
      "city": "綾瀬市",
      "lat": 35.4149,
      "lng": 139.4108,
      "url": "",
      "conditions": {
        "vaccination_cert": null,
        "size_limit": "",
        "fee": ""
      },
      "caution": "",
      "note": "",
      "sns": [],
      "source": "osm",
      "osm_id": "way/153276497",
      "last_verified": "2026-07-20"
    },
    {
      "id": 70,
      "name": "綾西公園",
      "category": "park",
      "area": "神奈川",
      "city": "綾瀬市",
      "lat": 35.4313,
      "lng": 139.4148,
      "url": "",
      "conditions": {
        "vaccination_cert": null,
        "size_limit": "",
        "fee": ""
      },
      "caution": "",
      "note": "",
      "sns": [],
      "source": "osm",
      "osm_id": "way/154652645",
      "last_verified": "2026-07-20"
    },
    {
      "id": 71,
      "name": "峰山公園",
      "category": "park",
      "area": "神奈川",
      "city": "綾瀬市",
      "lat": 35.4339,
      "lng": 139.4145,
      "url": "",
      "conditions": {
        "vaccination_cert": null,
        "size_limit": "",
        "fee": ""
      },
      "caution": "",
      "note": "",
      "sns": [],
      "source": "osm",
      "osm_id": "way/154659065",
      "last_verified": "2026-07-20"
    },
    {
      "id": 72,
      "name": "水道みち公園",
      "category": "park",
      "area": "神奈川",
      "city": "綾瀬市",
      "lat": 35.4289,
      "lng": 139.4115,
      "url": "",
      "conditions": {
        "vaccination_cert": null,
        "size_limit": "",
        "fee": ""
      },
      "caution": "",
      "note": "",
      "sns": [],
      "source": "osm",
      "osm_id": "way/154878017",
      "last_verified": "2026-07-20"
    },
    {
      "id": 73,
      "name": "バザール公園",
      "category": "park",
      "area": "神奈川",
      "city": "綾瀬市",
      "lat": 35.4325,
      "lng": 139.4103,
      "url": "",
      "conditions": {
        "vaccination_cert": null,
        "size_limit": "",
        "fee": ""
      },
      "caution": "",
      "note": "",
      "sns": [],
      "source": "osm",
      "osm_id": "way/155534604",
      "last_verified": "2026-07-20"
    },
    {
      "id": 74,
      "name": "嫁の久保公園",
      "category": "park",
      "area": "神奈川",
      "city": "綾瀬市",
      "lat": 35.4415,
      "lng": 139.4219,
      "url": "",
      "conditions": {
        "vaccination_cert": null,
        "size_limit": "",
        "fee": ""
      },
      "caution": "",
      "note": "",
      "sns": [],
      "source": "osm",
      "osm_id": "way/155589997",
      "last_verified": "2026-07-20"
    },
    {
      "id": 75,
      "name": "弘明寺公園",
      "category": "park",
      "area": "神奈川",
      "city": "横浜市南区",
      "lat": 35.4236,
      "lng": 139.5961,
      "url": "",
      "conditions": {
        "vaccination_cert": null,
        "size_limit": "",
        "fee": ""
      },
      "caution": "",
      "note": "",
      "sns": [],
      "source": "osm",
      "osm_id": "way/155988336",
      "last_verified": "2026-07-20"
    },
    {
      "id": 76,
      "name": "こども自然公園",
      "category": "park",
      "area": "神奈川",
      "city": "横浜市旭区",
      "lat": 35.4507,
      "lng": 139.5348,
      "url": "",
      "conditions": {
        "vaccination_cert": null,
        "size_limit": "",
        "fee": ""
      },
      "caution": "",
      "note": "",
      "sns": [],
      "source": "osm",
      "osm_id": "way/156597519",
      "last_verified": "2026-07-20"
    },
    {
      "id": 77,
      "name": "座間公園",
      "category": "park",
      "area": "神奈川",
      "city": "座間市",
      "lat": 35.4911,
      "lng": 139.3942,
      "url": "",
      "conditions": {
        "vaccination_cert": null,
        "size_limit": "",
        "fee": ""
      },
      "caution": "",
      "note": "",
      "sns": [],
      "source": "osm",
      "osm_id": "way/159672320",
      "last_verified": "2026-07-20"
    },
    {
      "id": 78,
      "name": "勝坂遺跡公園",
      "category": "park",
      "area": "神奈川",
      "city": "相模原市南区",
      "lat": 35.5089,
      "lng": 139.3881,
      "url": "",
      "conditions": {
        "vaccination_cert": null,
        "size_limit": "",
        "fee": ""
      },
      "caution": "",
      "note": "",
      "sns": [],
      "source": "osm",
      "osm_id": "way/159684391",
      "last_verified": "2026-07-20"
    },
    {
      "id": 79,
      "name": "神奈川公園",
      "category": "park",
      "area": "神奈川",
      "city": "横浜市神奈川区",
      "lat": 35.4705,
      "lng": 139.6315,
      "url": "",
      "conditions": {
        "vaccination_cert": null,
        "size_limit": "",
        "fee": ""
      },
      "caution": "",
      "note": "",
      "sns": [],
      "source": "osm",
      "osm_id": "way/160063535",
      "last_verified": "2026-07-20"
    },
    {
      "id": 80,
      "name": "アメリカ山公園",
      "category": "park",
      "area": "神奈川",
      "city": "横浜市中区",
      "lat": 35.4413,
      "lng": 139.6517,
      "url": "",
      "conditions": {
        "vaccination_cert": null,
        "size_limit": "",
        "fee": ""
      },
      "caution": "",
      "note": "",
      "sns": [],
      "source": "osm",
      "osm_id": "way/161319058",
      "last_verified": "2026-07-20"
    },
    {
      "id": 81,
      "name": "神奈川県立　保土ヶ谷公園",
      "category": "park",
      "area": "神奈川",
      "city": "横浜市保土ケ谷区",
      "lat": 35.4558,
      "lng": 139.585,
      "url": "",
      "conditions": {
        "vaccination_cert": null,
        "size_limit": "",
        "fee": ""
      },
      "caution": "",
      "note": "",
      "sns": [],
      "source": "osm",
      "osm_id": "way/161361559",
      "last_verified": "2026-07-20"
    },
    {
      "id": 82,
      "name": "海老名中央公園",
      "category": "park",
      "area": "神奈川",
      "city": "海老名市",
      "lat": 35.4524,
      "lng": 139.3937,
      "url": "https://www.city.ebina.kanagawa.jp/guide/sumai/kouen/1003472.html",
      "conditions": {
        "vaccination_cert": null,
        "size_limit": "",
        "fee": ""
      },
      "caution": "",
      "note": "",
      "sns": [],
      "source": "osm",
      "osm_id": "way/162351624",
      "last_verified": "2026-07-20"
    },
    {
      "id": 83,
      "name": "史跡 相模国分寺跡",
      "category": "park",
      "area": "神奈川",
      "city": "海老名市",
      "lat": 35.4546,
      "lng": 139.3984,
      "url": "",
      "conditions": {
        "vaccination_cert": null,
        "size_limit": "",
        "fee": ""
      },
      "caution": "",
      "note": "",
      "sns": [],
      "source": "osm",
      "osm_id": "way/162356370",
      "last_verified": "2026-07-20"
    },
    {
      "id": 84,
      "name": "蟹ヶ谷公園",
      "category": "park",
      "area": "神奈川",
      "city": "綾瀬市",
      "lat": 35.4194,
      "lng": 139.4161,
      "url": "",
      "conditions": {
        "vaccination_cert": null,
        "size_limit": "",
        "fee": ""
      },
      "caution": "",
      "note": "",
      "sns": [],
      "source": "osm",
      "osm_id": "way/162863121",
      "last_verified": "2026-07-20"
    },
    {
      "id": 85,
      "name": "綾瀬スポーツ公園",
      "category": "park",
      "area": "神奈川",
      "city": "綾瀬市",
      "lat": 35.4369,
      "lng": 139.4485,
      "url": "",
      "conditions": {
        "vaccination_cert": null,
        "size_limit": "",
        "fee": ""
      },
      "caution": "",
      "note": "",
      "sns": [],
      "source": "osm",
      "osm_id": "way/162972760",
      "last_verified": "2026-07-20"
    },
    {
      "id": 86,
      "name": "せせらぎ広場",
      "category": "park",
      "area": "神奈川",
      "city": "綾瀬市",
      "lat": 35.4328,
      "lng": 139.4188,
      "url": "",
      "conditions": {
        "vaccination_cert": null,
        "size_limit": "",
        "fee": ""
      },
      "caution": "",
      "note": "",
      "sns": [],
      "source": "osm",
      "osm_id": "way/163323549",
      "last_verified": "2026-07-20"
    },
    {
      "id": 87,
      "name": "みはらし広場",
      "category": "park",
      "area": "神奈川",
      "city": "綾瀬市",
      "lat": 35.4094,
      "lng": 139.4078,
      "url": "",
      "conditions": {
        "vaccination_cert": null,
        "size_limit": "",
        "fee": ""
      },
      "caution": "",
      "note": "",
      "sns": [],
      "source": "osm",
      "osm_id": "way/163323550",
      "last_verified": "2026-07-20"
    },
    {
      "id": 88,
      "name": "辻堂海浜公園",
      "category": "park",
      "area": "神奈川",
      "city": "藤沢市",
      "lat": 35.3212,
      "lng": 139.4489,
      "url": "",
      "conditions": {
        "vaccination_cert": null,
        "size_limit": "",
        "fee": ""
      },
      "caution": "",
      "note": "",
      "sns": [],
      "source": "osm",
      "osm_id": "way/164139709",
      "last_verified": "2026-07-20"
    },
    {
      "id": 89,
      "name": "鶴ヶ岡地域公園",
      "category": "park",
      "area": "神奈川",
      "city": "綾瀬市",
      "lat": 35.4322,
      "lng": 139.4401,
      "url": "",
      "conditions": {
        "vaccination_cert": null,
        "size_limit": "",
        "fee": ""
      },
      "caution": "",
      "note": "",
      "sns": [],
      "source": "osm",
      "osm_id": "way/165141621",
      "last_verified": "2026-07-20"
    },
    {
      "id": 90,
      "name": "ぼうさいの丘公園",
      "category": "park",
      "area": "神奈川",
      "city": "厚木市",
      "lat": 35.4341,
      "lng": 139.343,
      "url": "",
      "conditions": {
        "vaccination_cert": null,
        "size_limit": "",
        "fee": ""
      },
      "caution": "",
      "note": "",
      "sns": [],
      "source": "osm",
      "osm_id": "way/165912106",
      "last_verified": "2026-07-20"
    },
    {
      "id": 91,
      "name": "深谷中央２号公園",
      "category": "park",
      "area": "神奈川",
      "city": "綾瀬市",
      "lat": 35.4382,
      "lng": 139.4286,
      "url": "",
      "conditions": {
        "vaccination_cert": null,
        "size_limit": "",
        "fee": ""
      },
      "caution": "",
      "note": "",
      "sns": [],
      "source": "osm",
      "osm_id": "way/171499720",
      "last_verified": "2026-07-20"
    },
    {
      "id": 92,
      "name": "光綾公園",
      "category": "park",
      "area": "神奈川",
      "city": "綾瀬市",
      "lat": 35.4472,
      "lng": 139.4315,
      "url": "",
      "conditions": {
        "vaccination_cert": null,
        "size_limit": "",
        "fee": ""
      },
      "caution": "",
      "note": "",
      "sns": [],
      "source": "osm",
      "osm_id": "way/171610216",
      "last_verified": "2026-07-20"
    },
    {
      "id": 93,
      "name": "清水ヶ丘公園",
      "category": "park",
      "area": "神奈川",
      "city": "横浜市南区",
      "lat": 35.4385,
      "lng": 139.605,
      "url": "",
      "conditions": {
        "vaccination_cert": null,
        "size_limit": "",
        "fee": ""
      },
      "caution": "",
      "note": "",
      "sns": [],
      "source": "osm",
      "osm_id": "way/174326403",
      "last_verified": "2026-07-20"
    },
    {
      "id": 94,
      "name": "相模湖公園",
      "category": "park",
      "area": "神奈川",
      "city": "相模原市緑区",
      "lat": 35.6127,
      "lng": 139.1905,
      "url": "",
      "conditions": {
        "vaccination_cert": null,
        "size_limit": "",
        "fee": ""
      },
      "caution": "",
      "note": "",
      "sns": [],
      "source": "osm",
      "osm_id": "way/183512693",
      "last_verified": "2026-07-20"
    },
    {
      "id": 95,
      "name": "せせらぎ公園",
      "category": "park",
      "area": "神奈川",
      "city": "横浜市都筑区",
      "lat": 35.5391,
      "lng": 139.5938,
      "url": "",
      "conditions": {
        "vaccination_cert": null,
        "size_limit": "",
        "fee": ""
      },
      "caution": "",
      "note": "",
      "sns": [],
      "source": "osm",
      "osm_id": "way/184393287",
      "last_verified": "2026-07-20"
    },
    {
      "id": 96,
      "name": "風車公園",
      "category": "park",
      "area": "神奈川",
      "city": "綾瀬市",
      "lat": 35.4608,
      "lng": 139.4252,
      "url": "",
      "conditions": {
        "vaccination_cert": null,
        "size_limit": "",
        "fee": ""
      },
      "caution": "",
      "note": "",
      "sns": [],
      "source": "osm",
      "osm_id": "way/188067697",
      "last_verified": "2026-07-20"
    },
    {
      "id": 97,
      "name": "中原公園",
      "category": "park",
      "area": "神奈川",
      "city": "綾瀬市",
      "lat": 35.4248,
      "lng": 139.4468,
      "url": "",
      "conditions": {
        "vaccination_cert": null,
        "size_limit": "",
        "fee": ""
      },
      "caution": "",
      "note": "",
      "sns": [],
      "source": "osm",
      "osm_id": "way/188855574",
      "last_verified": "2026-07-20"
    },
    {
      "id": 98,
      "name": "寺尾中央公園",
      "category": "park",
      "area": "神奈川",
      "city": "綾瀬市",
      "lat": 35.4529,
      "lng": 139.4231,
      "url": "",
      "conditions": {
        "vaccination_cert": null,
        "size_limit": "",
        "fee": ""
      },
      "caution": "",
      "note": "",
      "sns": [],
      "source": "osm",
      "osm_id": "way/189373582",
      "last_verified": "2026-07-20"
    },
    {
      "id": 99,
      "name": "大谷近隣公園",
      "category": "park",
      "area": "神奈川",
      "city": "海老名市",
      "lat": 35.4327,
      "lng": 139.3973,
      "url": "",
      "conditions": {
        "vaccination_cert": null,
        "size_limit": "",
        "fee": ""
      },
      "caution": "",
      "note": "",
      "sns": [],
      "source": "osm",
      "osm_id": "way/192567085",
      "last_verified": "2026-07-20"
    },
    {
      "id": 100,
      "name": "葉山公園",
      "category": "park",
      "area": "神奈川",
      "city": "葉山町",
      "lat": 35.2583,
      "lng": 139.5797,
      "url": "",
      "conditions": {
        "vaccination_cert": null,
        "size_limit": "",
        "fee": ""
      },
      "caution": "",
      "note": "",
      "sns": [],
      "source": "osm",
      "osm_id": "way/195835394",
      "last_verified": "2026-07-20"
    },
    {
      "id": 101,
      "name": "立石公園",
      "category": "park",
      "area": "神奈川",
      "city": "横須賀市",
      "lat": 35.241,
      "lng": 139.5975,
      "url": "",
      "conditions": {
        "vaccination_cert": null,
        "size_limit": "",
        "fee": "無料"
      },
      "caution": "",
      "note": "",
      "sns": [],
      "source": "osm",
      "osm_id": "way/195835898",
      "last_verified": "2026-07-20"
    },
    {
      "id": 102,
      "name": "山手イタリア山庭園",
      "category": "park",
      "area": "神奈川",
      "city": "横浜市中区",
      "lat": 35.4368,
      "lng": 139.6436,
      "url": "",
      "conditions": {
        "vaccination_cert": null,
        "size_limit": "",
        "fee": ""
      },
      "caution": "",
      "note": "",
      "sns": [],
      "source": "osm",
      "osm_id": "way/197309339",
      "last_verified": "2026-07-20"
    },
    {
      "id": 103,
      "name": "山手公園",
      "category": "park",
      "area": "神奈川",
      "city": "横浜市中区",
      "lat": 35.4349,
      "lng": 139.6484,
      "url": "",
      "conditions": {
        "vaccination_cert": null,
        "size_limit": "",
        "fee": ""
      },
      "caution": "",
      "note": "",
      "sns": [],
      "source": "osm",
      "osm_id": "way/197312944",
      "last_verified": "2026-07-20"
    },
    {
      "id": 104,
      "name": "深谷中央1号公園",
      "category": "park",
      "area": "神奈川",
      "city": "綾瀬市",
      "lat": 35.4432,
      "lng": 139.4268,
      "url": "",
      "conditions": {
        "vaccination_cert": null,
        "size_limit": "",
        "fee": ""
      },
      "caution": "",
      "note": "",
      "sns": [],
      "source": "osm",
      "osm_id": "way/200587016",
      "last_verified": "2026-07-20"
    },
    {
      "id": 105,
      "name": "釜田第七公園",
      "category": "park",
      "area": "神奈川",
      "city": "綾瀬市",
      "lat": 35.4458,
      "lng": 139.423,
      "url": "",
      "conditions": {
        "vaccination_cert": null,
        "size_limit": "",
        "fee": ""
      },
      "caution": "",
      "note": "",
      "sns": [],
      "source": "osm",
      "osm_id": "way/216166847",
      "last_verified": "2026-07-20"
    },
    {
      "id": 106,
      "name": "県立四季の森公園",
      "category": "park",
      "area": "神奈川",
      "city": "横浜市緑区",
      "lat": 35.5028,
      "lng": 139.5369,
      "url": "",
      "conditions": {
        "vaccination_cert": null,
        "size_limit": "",
        "fee": ""
      },
      "caution": "",
      "note": "",
      "sns": [],
      "source": "osm",
      "osm_id": "way/217980541",
      "last_verified": "2026-07-20"
    },
    {
      "id": 107,
      "name": "大通り公園",
      "category": "park",
      "area": "神奈川",
      "city": "横浜市中区",
      "lat": 35.4405,
      "lng": 139.6308,
      "url": "",
      "conditions": {
        "vaccination_cert": null,
        "size_limit": "",
        "fee": ""
      },
      "caution": "",
      "note": "",
      "sns": [],
      "source": "osm",
      "osm_id": "way/219060716",
      "last_verified": "2026-07-20"
    },
    {
      "id": 108,
      "name": "海老名運動公園",
      "category": "park",
      "area": "神奈川",
      "city": "海老名市",
      "lat": 35.4292,
      "lng": 139.3781,
      "url": "",
      "conditions": {
        "vaccination_cert": null,
        "size_limit": "",
        "fee": ""
      },
      "caution": "",
      "note": "",
      "sns": [],
      "source": "osm",
      "osm_id": "way/220018563",
      "last_verified": "2026-07-20"
    },
    {
      "id": 109,
      "name": "湘南台公園",
      "category": "park",
      "area": "神奈川",
      "city": "藤沢市",
      "lat": 35.3973,
      "lng": 139.4712,
      "url": "",
      "conditions": {
        "vaccination_cert": null,
        "size_limit": "",
        "fee": ""
      },
      "caution": "",
      "note": "",
      "sns": [],
      "source": "osm",
      "osm_id": "way/220197825",
      "last_verified": "2026-07-20"
    },
    {
      "id": 110,
      "name": "金沢自然公園",
      "category": "park",
      "area": "神奈川",
      "city": "横浜市金沢区",
      "lat": 35.3512,
      "lng": 139.6007,
      "url": "",
      "conditions": {
        "vaccination_cert": null,
        "size_limit": "",
        "fee": ""
      },
      "caution": "",
      "note": "",
      "sns": [],
      "source": "osm",
      "osm_id": "way/221913468",
      "last_verified": "2026-07-20"
    },
    {
      "id": 111,
      "name": "高島水際線公園",
      "category": "park",
      "area": "神奈川",
      "city": "横浜市西区",
      "lat": 35.4652,
      "lng": 139.6299,
      "url": "",
      "conditions": {
        "vaccination_cert": null,
        "size_limit": "",
        "fee": ""
      },
      "caution": "",
      "note": "",
      "sns": [],
      "source": "osm",
      "osm_id": "way/222740004",
      "last_verified": "2026-07-20"
    },
    {
      "id": 112,
      "name": "東柏ケ谷近隣公園",
      "category": "park",
      "area": "神奈川",
      "city": "海老名市",
      "lat": 35.4684,
      "lng": 139.429,
      "url": "",
      "conditions": {
        "vaccination_cert": null,
        "size_limit": "",
        "fee": ""
      },
      "caution": "",
      "note": "",
      "sns": [],
      "source": "osm",
      "osm_id": "way/227085616",
      "last_verified": "2026-07-20"
    },
    {
      "id": 113,
      "name": "小田原城址公園",
      "category": "park",
      "area": "神奈川",
      "city": "小田原市",
      "lat": 35.2508,
      "lng": 139.1547,
      "url": "https://odawaracastle.com/Overview/",
      "conditions": {
        "vaccination_cert": null,
        "size_limit": "",
        "fee": ""
      },
      "caution": "",
      "note": "",
      "sns": [],
      "source": "osm",
      "osm_id": "way/232722951",
      "last_verified": "2026-07-20"
    },
    {
      "id": 114,
      "name": "史跡田名向原遺跡公園",
      "category": "park",
      "area": "神奈川",
      "city": "相模原市中央区",
      "lat": 35.5289,
      "lng": 139.3554,
      "url": "",
      "conditions": {
        "vaccination_cert": null,
        "size_limit": "",
        "fee": ""
      },
      "caution": "",
      "note": "",
      "sns": [],
      "source": "osm",
      "osm_id": "way/239987848",
      "last_verified": "2026-07-20"
    },
    {
      "id": 115,
      "name": "ヴェルニー公園",
      "category": "park",
      "area": "神奈川",
      "city": "横須賀市",
      "lat": 35.2835,
      "lng": 139.6582,
      "url": "https://www.kanagawaparks.com/verny-mikasa/verny/",
      "conditions": {
        "vaccination_cert": null,
        "size_limit": "",
        "fee": ""
      },
      "caution": "",
      "note": "",
      "sns": [],
      "source": "osm",
      "osm_id": "way/241056833",
      "last_verified": "2026-07-20"
    },
    {
      "id": 116,
      "name": "平和中央公園",
      "category": "park",
      "area": "神奈川",
      "city": "横須賀市",
      "lat": 35.2751,
      "lng": 139.6736,
      "url": "https://www.kanagawaparks.com/heiwacyuou/",
      "conditions": {
        "vaccination_cert": null,
        "size_limit": "",
        "fee": ""
      },
      "caution": "",
      "note": "",
      "sns": [],
      "source": "osm",
      "osm_id": "way/241059399",
      "last_verified": "2026-07-20"
    },
    {
      "id": 117,
      "name": "城山公園",
      "category": "park",
      "area": "神奈川",
      "city": "綾瀬市",
      "lat": 35.4375,
      "lng": 139.419,
      "url": "",
      "conditions": {
        "vaccination_cert": null,
        "size_limit": "",
        "fee": ""
      },
      "caution": "",
      "note": "",
      "sns": [],
      "source": "osm",
      "osm_id": "way/247842305",
      "last_verified": "2026-07-20"
    },
    {
      "id": 118,
      "name": "県立あいかわ公園",
      "category": "park",
      "area": "神奈川",
      "city": "愛川町",
      "lat": 35.5442,
      "lng": 139.2551,
      "url": "http://www.aikawa-park.jp/",
      "conditions": {
        "vaccination_cert": null,
        "size_limit": "",
        "fee": ""
      },
      "caution": "",
      "note": "",
      "sns": [],
      "source": "osm",
      "osm_id": "way/251883776",
      "last_verified": "2026-07-20"
    },
    {
      "id": 119,
      "name": "相模原麻溝公園",
      "category": "park",
      "area": "神奈川",
      "city": "相模原市南区",
      "lat": 35.5274,
      "lng": 139.392,
      "url": "",
      "conditions": {
        "vaccination_cert": null,
        "size_limit": "",
        "fee": ""
      },
      "caution": "",
      "note": "",
      "sns": [],
      "source": "osm",
      "osm_id": "way/261634460",
      "last_verified": "2026-07-20"
    },
    {
      "id": 120,
      "name": "不入斗公園",
      "category": "park",
      "area": "神奈川",
      "city": "横須賀市",
      "lat": 35.268,
      "lng": 139.6639,
      "url": "",
      "conditions": {
        "vaccination_cert": null,
        "size_limit": "",
        "fee": ""
      },
      "caution": "",
      "note": "",
      "sns": [],
      "source": "osm",
      "osm_id": "way/263744324",
      "last_verified": "2026-07-20"
    },
    {
      "id": 121,
      "name": "厚木中央公園",
      "category": "park",
      "area": "神奈川",
      "city": "厚木市",
      "lat": 35.444,
      "lng": 139.362,
      "url": "",
      "conditions": {
        "vaccination_cert": null,
        "size_limit": "",
        "fee": ""
      },
      "caution": "",
      "note": "",
      "sns": [],
      "source": "osm",
      "osm_id": "way/26758106",
      "last_verified": "2026-07-20"
    },
    {
      "id": 122,
      "name": "舞岡公園",
      "category": "park",
      "area": "神奈川",
      "city": "横浜市戸塚区",
      "lat": 35.3887,
      "lng": 139.5513,
      "url": "",
      "conditions": {
        "vaccination_cert": null,
        "size_limit": "",
        "fee": ""
      },
      "caution": "",
      "note": "",
      "sns": [],
      "source": "osm",
      "osm_id": "way/269113553",
      "last_verified": "2026-07-20"
    },
    {
      "id": 123,
      "name": "馬入ふれあい公園",
      "category": "park",
      "area": "神奈川",
      "city": "平塚市",
      "lat": 35.3337,
      "lng": 139.3638,
      "url": "",
      "conditions": {
        "vaccination_cert": null,
        "size_limit": "",
        "fee": ""
      },
      "caution": "",
      "note": "",
      "sns": [],
      "source": "osm",
      "osm_id": "way/270265832",
      "last_verified": "2026-07-20"
    },
    {
      "id": 124,
      "name": "俣野公園",
      "category": "park",
      "area": "神奈川",
      "city": "横浜市戸塚区",
      "lat": 35.387,
      "lng": 139.4921,
      "url": "https://www.hama-midorinokyokai.or.jp/park/matano/",
      "conditions": {
        "vaccination_cert": null,
        "size_limit": "",
        "fee": ""
      },
      "caution": "",
      "note": "",
      "sns": [],
      "source": "osm",
      "osm_id": "way/277264434",
      "last_verified": "2026-07-20"
    },
    {
      "id": 125,
      "name": "山下町公園",
      "category": "park",
      "area": "神奈川",
      "city": "横浜市中区",
      "lat": 35.4422,
      "lng": 139.6473,
      "url": "",
      "conditions": {
        "vaccination_cert": null,
        "size_limit": "",
        "fee": ""
      },
      "caution": "",
      "note": "",
      "sns": [],
      "source": "osm",
      "osm_id": "way/27734623",
      "last_verified": "2026-07-20"
    },
    {
      "id": 126,
      "name": "強羅公園",
      "category": "park",
      "area": "神奈川",
      "city": "箱根町",
      "lat": 35.2486,
      "lng": 139.045,
      "url": "https://www.hakone-tozan.co.jp/gorapark/",
      "conditions": {
        "vaccination_cert": null,
        "size_limit": "",
        "fee": "有料"
      },
      "caution": "",
      "note": "",
      "sns": [],
      "source": "osm",
      "osm_id": "way/281489340",
      "last_verified": "2026-07-20",
      "link_broken": true
    },
    {
      "id": 127,
      "name": "夢見ヶ崎動物公園",
      "category": "park",
      "area": "神奈川",
      "city": "川崎市幸区",
      "lat": 35.5494,
      "lng": 139.666,
      "url": "",
      "conditions": {
        "vaccination_cert": null,
        "size_limit": "",
        "fee": ""
      },
      "caution": "",
      "note": "",
      "sns": [],
      "source": "osm",
      "osm_id": "way/28918314",
      "last_verified": "2026-07-20"
    },
    {
      "id": 128,
      "name": "大師公園",
      "category": "park",
      "area": "神奈川",
      "city": "川崎市川崎区",
      "lat": 35.5317,
      "lng": 139.7317,
      "url": "",
      "conditions": {
        "vaccination_cert": null,
        "size_limit": "",
        "fee": ""
      },
      "caution": "",
      "note": "",
      "sns": [],
      "source": "osm",
      "osm_id": "way/29178626",
      "last_verified": "2026-07-20"
    },
    {
      "id": 129,
      "name": "横浜市 児童遊園地",
      "category": "park",
      "area": "神奈川",
      "city": "横浜市保土ケ谷区",
      "lat": 35.4365,
      "lng": 139.5786,
      "url": "",
      "conditions": {
        "vaccination_cert": null,
        "size_limit": "",
        "fee": ""
      },
      "caution": "",
      "note": "",
      "sns": [],
      "source": "osm",
      "osm_id": "way/292493736",
      "last_verified": "2026-07-20"
    },
    {
      "id": 130,
      "name": "深谷森林公園",
      "category": "park",
      "area": "神奈川",
      "city": "綾瀬市",
      "lat": 35.4316,
      "lng": 139.4338,
      "url": "",
      "conditions": {
        "vaccination_cert": null,
        "size_limit": "",
        "fee": ""
      },
      "caution": "",
      "note": "",
      "sns": [],
      "source": "osm",
      "osm_id": "way/294634187",
      "last_verified": "2026-07-20"
    },
    {
      "id": 131,
      "name": "常盤公園",
      "category": "park",
      "area": "神奈川",
      "city": "横浜市保土ケ谷区",
      "lat": 35.4693,
      "lng": 139.5896,
      "url": "",
      "conditions": {
        "vaccination_cert": null,
        "size_limit": "",
        "fee": ""
      },
      "caution": "",
      "note": "",
      "sns": [],
      "source": "osm",
      "osm_id": "way/297313690",
      "last_verified": "2026-07-20"
    },
    {
      "id": 132,
      "name": "サンバード公園",
      "category": "park",
      "area": "神奈川",
      "city": "綾瀬市",
      "lat": 35.4433,
      "lng": 139.4351,
      "url": "",
      "conditions": {
        "vaccination_cert": null,
        "size_limit": "",
        "fee": ""
      },
      "caution": "",
      "note": "",
      "sns": [],
      "source": "osm",
      "osm_id": "way/306696175",
      "last_verified": "2026-07-20"
    },
    {
      "id": 133,
      "name": "本牧市民公園",
      "category": "park",
      "area": "神奈川",
      "city": "横浜市中区",
      "lat": 35.4147,
      "lng": 139.6603,
      "url": "",
      "conditions": {
        "vaccination_cert": null,
        "size_limit": "",
        "fee": ""
      },
      "caution": "",
      "note": "",
      "sns": [],
      "source": "osm",
      "osm_id": "way/312883205",
      "last_verified": "2026-07-20"
    },
    {
      "id": 134,
      "name": "富岡総合公園",
      "category": "park",
      "area": "神奈川",
      "city": "横浜市金沢区",
      "lat": 35.3756,
      "lng": 139.6315,
      "url": "",
      "conditions": {
        "vaccination_cert": null,
        "size_limit": "",
        "fee": ""
      },
      "caution": "",
      "note": "",
      "sns": [],
      "source": "osm",
      "osm_id": "way/314205797",
      "last_verified": "2026-07-20"
    },
    {
      "id": 135,
      "name": "長浜野口記念公園",
      "category": "park",
      "area": "神奈川",
      "city": "横浜市金沢区",
      "lat": 35.3574,
      "lng": 139.6367,
      "url": "",
      "conditions": {
        "vaccination_cert": null,
        "size_limit": "",
        "fee": ""
      },
      "caution": "",
      "note": "",
      "sns": [],
      "source": "osm",
      "osm_id": "way/315118516",
      "last_verified": "2026-07-20"
    },
    {
      "id": 136,
      "name": "開港広場公園",
      "category": "park",
      "area": "神奈川",
      "city": "横浜市中区",
      "lat": 35.4473,
      "lng": 139.6443,
      "url": "",
      "conditions": {
        "vaccination_cert": null,
        "size_limit": "",
        "fee": ""
      },
      "caution": "",
      "note": "",
      "sns": [],
      "source": "osm",
      "osm_id": "way/318154179",
      "last_verified": "2026-07-20"
    },
    {
      "id": 137,
      "name": "綱島公園",
      "category": "park",
      "area": "神奈川",
      "city": "横浜市港北区",
      "lat": 35.5402,
      "lng": 139.6353,
      "url": "",
      "conditions": {
        "vaccination_cert": null,
        "size_limit": "",
        "fee": ""
      },
      "caution": "",
      "note": "",
      "sns": [],
      "source": "osm",
      "osm_id": "way/32051427",
      "last_verified": "2026-07-20"
    },
    {
      "id": 138,
      "name": "海辺つり公園",
      "category": "park",
      "area": "神奈川",
      "city": "横須賀市",
      "lat": 35.2686,
      "lng": 139.6903,
      "url": "",
      "conditions": {
        "vaccination_cert": null,
        "size_limit": "",
        "fee": ""
      },
      "caution": "",
      "note": "",
      "sns": [],
      "source": "osm",
      "osm_id": "way/321610544",
      "last_verified": "2026-07-20"
    },
    {
      "id": 139,
      "name": "大和ゆとりの森",
      "category": "park",
      "area": "神奈川",
      "city": "大和市",
      "lat": 35.4368,
      "lng": 139.4515,
      "url": "",
      "conditions": {
        "vaccination_cert": null,
        "size_limit": "",
        "fee": ""
      },
      "caution": "",
      "note": "",
      "sns": [],
      "source": "osm",
      "osm_id": "way/32336179",
      "last_verified": "2026-07-20"
    },
    {
      "id": 140,
      "name": "中原平和公園",
      "category": "park",
      "area": "神奈川",
      "city": "川崎市中原区",
      "lat": 35.5676,
      "lng": 139.6595,
      "url": "",
      "conditions": {
        "vaccination_cert": null,
        "size_limit": "",
        "fee": ""
      },
      "caution": "",
      "note": "",
      "sns": [],
      "source": "osm",
      "osm_id": "way/32873522",
      "last_verified": "2026-07-20"
    },
    {
      "id": 141,
      "name": "追浜公園",
      "category": "park",
      "area": "神奈川",
      "city": "横須賀市",
      "lat": 35.3174,
      "lng": 139.6342,
      "url": "",
      "conditions": {
        "vaccination_cert": null,
        "size_limit": "",
        "fee": ""
      },
      "caution": "",
      "note": "",
      "sns": [],
      "source": "osm",
      "osm_id": "way/334124744",
      "last_verified": "2026-07-20"
    },
    {
      "id": 142,
      "name": "山下公園",
      "category": "park",
      "area": "神奈川",
      "city": "横浜市中区",
      "lat": 35.4457,
      "lng": 139.6499,
      "url": "",
      "conditions": {
        "vaccination_cert": null,
        "size_limit": "",
        "fee": ""
      },
      "caution": "",
      "note": "",
      "sns": [],
      "source": "osm",
      "osm_id": "way/35866698",
      "last_verified": "2026-07-20"
    },
    {
      "id": 143,
      "name": "風の公園",
      "category": "park",
      "area": "神奈川",
      "city": "綾瀬市",
      "lat": 35.4343,
      "lng": 139.4319,
      "url": "",
      "conditions": {
        "vaccination_cert": null,
        "size_limit": "",
        "fee": ""
      },
      "caution": "",
      "note": "",
      "sns": [],
      "source": "osm",
      "osm_id": "way/363538325",
      "last_verified": "2026-07-20"
    },
    {
      "id": 144,
      "name": "臨港パーク",
      "category": "park",
      "area": "神奈川",
      "city": "横浜市西区",
      "lat": 35.4609,
      "lng": 139.637,
      "url": "",
      "conditions": {
        "vaccination_cert": null,
        "size_limit": "",
        "fee": ""
      },
      "caution": "",
      "note": "",
      "sns": [],
      "source": "osm",
      "osm_id": "way/36805734",
      "last_verified": "2026-07-20"
    },
    {
      "id": 145,
      "name": "田浦梅の里",
      "category": "park",
      "area": "神奈川",
      "city": "横須賀市",
      "lat": 35.2856,
      "lng": 139.6305,
      "url": "",
      "conditions": {
        "vaccination_cert": null,
        "size_limit": "",
        "fee": ""
      },
      "caution": "",
      "note": "",
      "sns": [],
      "source": "osm",
      "osm_id": "way/370418218",
      "last_verified": "2026-07-20"
    },
    {
      "id": 146,
      "name": "披露山公園",
      "category": "park",
      "area": "神奈川",
      "city": "逗子市",
      "lat": 35.2961,
      "lng": 139.5647,
      "url": "https://www.city.zushi.kanagawa.jp/kurashi/sumai/1002174/1002178/1002179/1002181.html",
      "conditions": {
        "vaccination_cert": null,
        "size_limit": "",
        "fee": ""
      },
      "caution": "",
      "note": "",
      "sns": [],
      "source": "osm",
      "osm_id": "way/377290589",
      "last_verified": "2026-07-20"
    },
    {
      "id": 147,
      "name": "三笠公園",
      "category": "park",
      "area": "神奈川",
      "city": "横須賀市",
      "lat": 35.2855,
      "lng": 139.6733,
      "url": "https://www.kanagawaparks.com/verny-mikasa/mikasa/",
      "conditions": {
        "vaccination_cert": null,
        "size_limit": "",
        "fee": ""
      },
      "caution": "",
      "note": "",
      "sns": [],
      "source": "osm",
      "osm_id": "way/37866825",
      "last_verified": "2026-07-20"
    },
    {
      "id": 148,
      "name": "うみかぜ公園",
      "category": "park",
      "area": "神奈川",
      "city": "横須賀市",
      "lat": 35.2767,
      "lng": 139.6829,
      "url": "",
      "conditions": {
        "vaccination_cert": null,
        "size_limit": "",
        "fee": ""
      },
      "caution": "",
      "note": "",
      "sns": [],
      "source": "osm",
      "osm_id": "way/37869610",
      "last_verified": "2026-07-20"
    },
    {
      "id": 149,
      "name": "佐原2丁目公園",
      "category": "park",
      "area": "神奈川",
      "city": "横須賀市",
      "lat": 35.2423,
      "lng": 139.685,
      "url": "",
      "conditions": {
        "vaccination_cert": null,
        "size_limit": "",
        "fee": ""
      },
      "caution": "",
      "note": "",
      "sns": [],
      "source": "osm",
      "osm_id": "way/379936379",
      "last_verified": "2026-07-20"
    },
    {
      "id": 150,
      "name": "荒崎公園",
      "category": "park",
      "area": "神奈川",
      "city": "横須賀市",
      "lat": 35.1951,
      "lng": 139.6011,
      "url": "",
      "conditions": {
        "vaccination_cert": null,
        "size_limit": "",
        "fee": ""
      },
      "caution": "",
      "note": "",
      "sns": [],
      "source": "osm",
      "osm_id": "way/389700762",
      "last_verified": "2026-07-20"
    },
    {
      "id": 151,
      "name": "渋沢金井公園",
      "category": "park",
      "area": "神奈川",
      "city": "横浜市鶴見区",
      "lat": 35.5137,
      "lng": 139.6493,
      "url": "",
      "conditions": {
        "vaccination_cert": null,
        "size_limit": "",
        "fee": ""
      },
      "caution": "",
      "note": "",
      "sns": [],
      "source": "osm",
      "osm_id": "way/391519043",
      "last_verified": "2026-07-20"
    },
    {
      "id": 152,
      "name": "城ヶ島公園",
      "category": "park",
      "area": "神奈川",
      "city": "三浦市",
      "lat": 35.1327,
      "lng": 139.6246,
      "url": "",
      "conditions": {
        "vaccination_cert": null,
        "size_limit": "",
        "fee": ""
      },
      "caution": "",
      "note": "",
      "sns": [],
      "source": "osm",
      "osm_id": "way/395998646",
      "last_verified": "2026-07-20"
    },
    {
      "id": 153,
      "name": "平塚市総合公園",
      "category": "park",
      "area": "神奈川",
      "city": "平塚市",
      "lat": 35.3425,
      "lng": 139.3414,
      "url": "https://www.city.hiratsuka.kanagawa.jp/koen/sogo.html",
      "conditions": {
        "vaccination_cert": null,
        "size_limit": "",
        "fee": ""
      },
      "caution": "",
      "note": "",
      "sns": [],
      "source": "osm",
      "osm_id": "way/40126719",
      "last_verified": "2026-07-20"
    },
    {
      "id": 154,
      "name": "神大寺中央公園",
      "category": "park",
      "area": "神奈川",
      "city": "横浜市神奈川区",
      "lat": 35.4839,
      "lng": 139.6061,
      "url": "",
      "conditions": {
        "vaccination_cert": null,
        "size_limit": "",
        "fee": ""
      },
      "caution": "",
      "note": "",
      "sns": [],
      "source": "osm",
      "osm_id": "way/425895951",
      "last_verified": "2026-07-20"
    },
    {
      "id": 155,
      "name": "神崎遺跡公園",
      "category": "park",
      "area": "神奈川",
      "city": "綾瀬市",
      "lat": 35.4103,
      "lng": 139.407,
      "url": "",
      "conditions": {
        "vaccination_cert": null,
        "size_limit": "",
        "fee": ""
      },
      "caution": "",
      "note": "",
      "sns": [],
      "source": "osm",
      "osm_id": "way/434962944",
      "last_verified": "2026-07-20"
    },
    {
      "id": 156,
      "name": "恩賜箱根公園",
      "category": "park",
      "area": "神奈川",
      "city": "箱根町",
      "lat": 35.1963,
      "lng": 139.0256,
      "url": "https://www.kanagawa-park.or.jp/onsisite/",
      "conditions": {
        "vaccination_cert": null,
        "size_limit": "",
        "fee": ""
      },
      "caution": "",
      "note": "",
      "sns": [],
      "source": "osm",
      "osm_id": "way/438040760",
      "last_verified": "2026-07-20"
    },
    {
      "id": 157,
      "name": "わんぱくらんど 小田原こどもの森公園",
      "category": "park",
      "area": "神奈川",
      "city": "小田原市",
      "lat": 35.259,
      "lng": 139.125,
      "url": "",
      "conditions": {
        "vaccination_cert": null,
        "size_limit": "",
        "fee": ""
      },
      "caution": "",
      "note": "",
      "sns": [],
      "source": "osm",
      "osm_id": "way/440255790",
      "last_verified": "2026-07-20"
    },
    {
      "id": 158,
      "name": "源氏山公園",
      "category": "park",
      "area": "神奈川",
      "city": "鎌倉市",
      "lat": 35.3264,
      "lng": 139.5447,
      "url": "http://kamakura-park.com/go/genjiyama_park/",
      "conditions": {
        "vaccination_cert": null,
        "size_limit": "",
        "fee": "無料"
      },
      "caution": "",
      "note": "",
      "sns": [],
      "source": "osm",
      "osm_id": "way/440917189",
      "last_verified": "2026-07-20"
    },
    {
      "id": 159,
      "name": "徳生公園",
      "category": "park",
      "area": "神奈川",
      "city": "横浜市都筑区",
      "lat": 35.5547,
      "lng": 139.5865,
      "url": "",
      "conditions": {
        "vaccination_cert": null,
        "size_limit": "",
        "fee": ""
      },
      "caution": "",
      "note": "",
      "sns": [],
      "source": "osm",
      "osm_id": "way/452969879",
      "last_verified": "2026-07-20"
    },
    {
      "id": 160,
      "name": "港の見える丘公園",
      "category": "park",
      "area": "神奈川",
      "city": "横浜市中区",
      "lat": 35.4401,
      "lng": 139.6544,
      "url": "",
      "conditions": {
        "vaccination_cert": null,
        "size_limit": "",
        "fee": ""
      },
      "caution": "",
      "note": "",
      "sns": [],
      "source": "osm",
      "osm_id": "way/48117465",
      "last_verified": "2026-07-20"
    },
    {
      "id": 161,
      "name": "やぶね公園",
      "category": "park",
      "area": "神奈川",
      "city": "綾瀬市",
      "lat": 35.412,
      "lng": 139.4516,
      "url": "",
      "conditions": {
        "vaccination_cert": null,
        "size_limit": "",
        "fee": ""
      },
      "caution": "",
      "note": "",
      "sns": [],
      "source": "osm",
      "osm_id": "way/483061548",
      "last_verified": "2026-07-20"
    },
    {
      "id": 162,
      "name": "綾南公園",
      "category": "park",
      "area": "神奈川",
      "city": "綾瀬市",
      "lat": 35.4186,
      "lng": 139.4448,
      "url": "",
      "conditions": {
        "vaccination_cert": null,
        "size_limit": "",
        "fee": ""
      },
      "caution": "",
      "note": "",
      "sns": [],
      "source": "osm",
      "osm_id": "way/483228944",
      "last_verified": "2026-07-20"
    },
    {
      "id": 163,
      "name": "第一運動公園",
      "category": "park",
      "area": "神奈川",
      "city": "逗子市",
      "lat": 35.3007,
      "lng": 139.5914,
      "url": "https://www.city.zushi.kanagawa.jp/kurashi/sumai/1002174/1002178/1002179/1002180.html",
      "conditions": {
        "vaccination_cert": null,
        "size_limit": "",
        "fee": ""
      },
      "caution": "路上に落ちている不審なおやつ等にご注意ください。",
      "note": "",
      "sns": [],
      "source": "osm",
      "osm_id": "way/490917783",
      "last_verified": "2026-07-20"
    },
    {
      "id": 164,
      "name": "八菅山いこいの森",
      "category": "park",
      "area": "神奈川",
      "city": "愛川町",
      "lat": 35.516,
      "lng": 139.3202,
      "url": "",
      "conditions": {
        "vaccination_cert": null,
        "size_limit": "",
        "fee": ""
      },
      "caution": "",
      "note": "",
      "sns": [],
      "source": "osm",
      "osm_id": "way/494435606",
      "last_verified": "2026-07-20"
    },
    {
      "id": 165,
      "name": "笠間中央公園",
      "category": "park",
      "area": "神奈川",
      "city": "横浜市栄区",
      "lat": 35.359,
      "lng": 139.5382,
      "url": "",
      "conditions": {
        "vaccination_cert": null,
        "size_limit": "",
        "fee": ""
      },
      "caution": "",
      "note": "",
      "sns": [],
      "source": "osm",
      "osm_id": "way/501095279",
      "last_verified": "2026-07-20"
    },
    {
      "id": 166,
      "name": "小雀公園",
      "category": "park",
      "area": "神奈川",
      "city": "横浜市戸塚区",
      "lat": 35.3685,
      "lng": 139.5127,
      "url": "",
      "conditions": {
        "vaccination_cert": null,
        "size_limit": "",
        "fee": ""
      },
      "caution": "",
      "note": "",
      "sns": [],
      "source": "osm",
      "osm_id": "way/502313339",
      "last_verified": "2026-07-20"
    },
    {
      "id": 167,
      "name": "白幡池公園",
      "category": "park",
      "area": "神奈川",
      "city": "横浜市神奈川区",
      "lat": 35.4919,
      "lng": 139.628,
      "url": "",
      "conditions": {
        "vaccination_cert": null,
        "size_limit": "",
        "fee": ""
      },
      "caution": "",
      "note": "",
      "sns": [],
      "source": "osm",
      "osm_id": "way/503328051",
      "last_verified": "2026-07-20"
    },
    {
      "id": 168,
      "name": "元町百段公園",
      "category": "park",
      "area": "神奈川",
      "city": "横浜市中区",
      "lat": 35.4397,
      "lng": 139.6489,
      "url": "",
      "conditions": {
        "vaccination_cert": null,
        "size_limit": "",
        "fee": ""
      },
      "caution": "",
      "note": "",
      "sns": [],
      "source": "osm",
      "osm_id": "way/505048878",
      "last_verified": "2026-07-20"
    },
    {
      "id": 169,
      "name": "泉中央公園",
      "category": "park",
      "area": "神奈川",
      "city": "横浜市泉区",
      "lat": 35.4126,
      "lng": 139.4896,
      "url": "",
      "conditions": {
        "vaccination_cert": null,
        "size_limit": "",
        "fee": ""
      },
      "caution": "",
      "note": "",
      "sns": [],
      "source": "osm",
      "osm_id": "way/506441293",
      "last_verified": "2026-07-20"
    },
    {
      "id": 170,
      "name": "ぞうさん公園",
      "category": "park",
      "area": "神奈川",
      "city": "綾瀬市",
      "lat": 35.4348,
      "lng": 139.4116,
      "url": "",
      "conditions": {
        "vaccination_cert": null,
        "size_limit": "",
        "fee": ""
      },
      "caution": "",
      "note": "",
      "sns": [],
      "source": "osm",
      "osm_id": "way/51383703",
      "last_verified": "2026-07-20"
    },
    {
      "id": 171,
      "name": "新林公園",
      "category": "park",
      "area": "神奈川",
      "city": "藤沢市",
      "lat": 35.3303,
      "lng": 139.4929,
      "url": "",
      "conditions": {
        "vaccination_cert": null,
        "size_limit": "",
        "fee": ""
      },
      "caution": "",
      "note": "",
      "sns": [],
      "source": "osm",
      "osm_id": "way/545040040",
      "last_verified": "2026-07-20"
    },
    {
      "id": 172,
      "name": "東名公園",
      "category": "park",
      "area": "神奈川",
      "city": "綾瀬市",
      "lat": 35.4448,
      "lng": 139.4121,
      "url": "",
      "conditions": {
        "vaccination_cert": null,
        "size_limit": "",
        "fee": ""
      },
      "caution": "",
      "note": "",
      "sns": [],
      "source": "osm",
      "osm_id": "way/545693695",
      "last_verified": "2026-07-20"
    },
    {
      "id": 173,
      "name": "秦野戸川公園",
      "category": "park",
      "area": "神奈川",
      "city": "秦野市",
      "lat": 35.4046,
      "lng": 139.1714,
      "url": "https://www.kanagawa-park.or.jp/hadanotokawa/",
      "conditions": {
        "vaccination_cert": null,
        "size_limit": "",
        "fee": ""
      },
      "caution": "",
      "note": "",
      "sns": [],
      "source": "osm",
      "osm_id": "way/546732160",
      "last_verified": "2026-07-20"
    },
    {
      "id": 174,
      "name": "桜ヶ丘公園",
      "category": "park",
      "area": "神奈川",
      "city": "平塚市",
      "lat": 35.3272,
      "lng": 139.3281,
      "url": "",
      "conditions": {
        "vaccination_cert": null,
        "size_limit": "",
        "fee": ""
      },
      "caution": "",
      "note": "",
      "sns": [],
      "source": "osm",
      "osm_id": "way/549042164",
      "last_verified": "2026-07-20"
    },
    {
      "id": 175,
      "name": "桃並公園",
      "category": "park",
      "area": "神奈川",
      "city": "綾瀬市",
      "lat": 35.4562,
      "lng": 139.4292,
      "url": "",
      "conditions": {
        "vaccination_cert": null,
        "size_limit": "",
        "fee": ""
      },
      "caution": "",
      "note": "",
      "sns": [],
      "source": "osm",
      "osm_id": "way/54965547",
      "last_verified": "2026-07-20"
    },
    {
      "id": 176,
      "name": "大上ゆめ公園",
      "category": "park",
      "area": "神奈川",
      "city": "綾瀬市",
      "lat": 35.4638,
      "lng": 139.4288,
      "url": "",
      "conditions": {
        "vaccination_cert": null,
        "size_limit": "",
        "fee": ""
      },
      "caution": "",
      "note": "",
      "sns": [],
      "source": "osm",
      "osm_id": "way/54966999",
      "last_verified": "2026-07-20"
    },
    {
      "id": 177,
      "name": "若宮公園",
      "category": "park",
      "area": "神奈川",
      "city": "厚木市",
      "lat": 35.4434,
      "lng": 139.3104,
      "url": "",
      "conditions": {
        "vaccination_cert": null,
        "size_limit": "",
        "fee": ""
      },
      "caution": "",
      "note": "",
      "sns": [],
      "source": "osm",
      "osm_id": "way/558373637",
      "last_verified": "2026-07-20"
    },
    {
      "id": 178,
      "name": "まちかど公園",
      "category": "park",
      "area": "神奈川",
      "city": "海老名市",
      "lat": 35.4493,
      "lng": 139.3922,
      "url": "",
      "conditions": {
        "vaccination_cert": null,
        "size_limit": "",
        "fee": ""
      },
      "caution": "",
      "note": "",
      "sns": [],
      "source": "osm",
      "osm_id": "way/558853363",
      "last_verified": "2026-07-20"
    },
    {
      "id": 179,
      "name": "富士見公園",
      "category": "park",
      "area": "神奈川",
      "city": "川崎市川崎区",
      "lat": 35.5278,
      "lng": 139.712,
      "url": "",
      "conditions": {
        "vaccination_cert": null,
        "size_limit": "",
        "fee": ""
      },
      "caution": "",
      "note": "",
      "sns": [],
      "source": "osm",
      "osm_id": "way/572484477",
      "last_verified": "2026-07-20"
    },
    {
      "id": 180,
      "name": "大津公園",
      "category": "park",
      "area": "神奈川",
      "city": "横須賀市",
      "lat": 35.259,
      "lng": 139.6896,
      "url": "",
      "conditions": {
        "vaccination_cert": null,
        "size_limit": "",
        "fee": ""
      },
      "caution": "",
      "note": "",
      "sns": [],
      "source": "osm",
      "osm_id": "way/574363242",
      "last_verified": "2026-07-20"
    },
    {
      "id": 181,
      "name": "三ツ池公園",
      "category": "park",
      "area": "神奈川",
      "city": "横浜市鶴見区",
      "lat": 35.5231,
      "lng": 139.66,
      "url": "",
      "conditions": {
        "vaccination_cert": null,
        "size_limit": "",
        "fee": ""
      },
      "caution": "",
      "note": "",
      "sns": [],
      "source": "osm",
      "osm_id": "way/575570441",
      "last_verified": "2026-07-20"
    },
    {
      "id": 182,
      "name": "相模国分尼寺跡",
      "category": "park",
      "area": "神奈川",
      "city": "海老名市",
      "lat": 35.4599,
      "lng": 139.3981,
      "url": "",
      "conditions": {
        "vaccination_cert": null,
        "size_limit": "",
        "fee": ""
      },
      "caution": "",
      "note": "",
      "sns": [],
      "source": "osm",
      "osm_id": "way/587574732",
      "last_verified": "2026-07-20"
    },
    {
      "id": 183,
      "name": "丸山城址公園",
      "category": "park",
      "area": "神奈川",
      "city": "伊勢原市",
      "lat": 35.4075,
      "lng": 139.3197,
      "url": "",
      "conditions": {
        "vaccination_cert": null,
        "size_limit": "",
        "fee": ""
      },
      "caution": "",
      "note": "",
      "sns": [],
      "source": "osm",
      "osm_id": "way/589136690",
      "last_verified": "2026-07-20"
    },
    {
      "id": 184,
      "name": "神奈川県立相模三川公園",
      "category": "park",
      "area": "神奈川",
      "city": "海老名市",
      "lat": 35.4598,
      "lng": 139.3809,
      "url": "",
      "conditions": {
        "vaccination_cert": null,
        "size_limit": "",
        "fee": ""
      },
      "caution": "",
      "note": "",
      "sns": [],
      "source": "osm",
      "osm_id": "way/593069611",
      "last_verified": "2026-07-20"
    },
    {
      "id": 185,
      "name": "小園南公園",
      "category": "park",
      "area": "神奈川",
      "city": "綾瀬市",
      "lat": 35.4458,
      "lng": 139.4142,
      "url": "",
      "conditions": {
        "vaccination_cert": null,
        "size_limit": "",
        "fee": ""
      },
      "caution": "",
      "note": "",
      "sns": [],
      "source": "osm",
      "osm_id": "way/601462966",
      "last_verified": "2026-07-20"
    },
    {
      "id": 186,
      "name": "川和富士公園",
      "category": "park",
      "area": "神奈川",
      "city": "横浜市都筑区",
      "lat": 35.533,
      "lng": 139.5569,
      "url": "",
      "conditions": {
        "vaccination_cert": null,
        "size_limit": "",
        "fee": ""
      },
      "caution": "",
      "note": "",
      "sns": [],
      "source": "osm",
      "osm_id": "way/60445946",
      "last_verified": "2026-07-20"
    },
    {
      "id": 187,
      "name": "等々力緑地",
      "category": "park",
      "area": "神奈川",
      "city": "川崎市中原区",
      "lat": 35.5876,
      "lng": 139.6506,
      "url": "",
      "conditions": {
        "vaccination_cert": null,
        "size_limit": "",
        "fee": ""
      },
      "caution": "",
      "note": "",
      "sns": [],
      "source": "osm",
      "osm_id": "way/60973069",
      "last_verified": "2026-07-20"
    },
    {
      "id": 188,
      "name": "伊勢原市総合運動公園",
      "category": "park",
      "area": "神奈川",
      "city": "伊勢原市",
      "lat": 35.4206,
      "lng": 139.3064,
      "url": "http://www.genkina-isehara.net/HTML/park_sogo.html",
      "conditions": {
        "vaccination_cert": null,
        "size_limit": "",
        "fee": ""
      },
      "caution": "",
      "note": "",
      "sns": [],
      "source": "osm",
      "osm_id": "way/610820643",
      "last_verified": "2026-07-20"
    },
    {
      "id": 189,
      "name": "飯山白山森林公園",
      "category": "park",
      "area": "神奈川",
      "city": "厚木市",
      "lat": 35.475,
      "lng": 139.3028,
      "url": "",
      "conditions": {
        "vaccination_cert": null,
        "size_limit": "",
        "fee": ""
      },
      "caution": "",
      "note": "",
      "sns": [],
      "source": "osm",
      "osm_id": "way/614041877",
      "last_verified": "2026-07-20"
    },
    {
      "id": 190,
      "name": "つつじ台公園",
      "category": "park",
      "area": "神奈川",
      "city": "厚木市",
      "lat": 35.4638,
      "lng": 139.3243,
      "url": "",
      "conditions": {
        "vaccination_cert": null,
        "size_limit": "",
        "fee": ""
      },
      "caution": "",
      "note": "",
      "sns": [],
      "source": "osm",
      "osm_id": "way/614075087",
      "last_verified": "2026-07-20"
    },
    {
      "id": 191,
      "name": "七沢森林公園",
      "category": "park",
      "area": "神奈川",
      "city": "厚木市",
      "lat": 35.4469,
      "lng": 139.3012,
      "url": "",
      "conditions": {
        "vaccination_cert": null,
        "size_limit": "",
        "fee": ""
      },
      "caution": "",
      "note": "",
      "sns": [],
      "source": "osm",
      "osm_id": "way/614205745",
      "last_verified": "2026-07-20"
    },
    {
      "id": 192,
      "name": "くりはま花の国",
      "category": "park",
      "area": "神奈川",
      "city": "横須賀市",
      "lat": 35.2212,
      "lng": 139.7045,
      "url": "https://www.kanagawaparks.com/kurihama-perry/kurihama/",
      "conditions": {
        "vaccination_cert": null,
        "size_limit": "",
        "fee": ""
      },
      "caution": "",
      "note": "",
      "sns": [],
      "source": "osm",
      "osm_id": "way/618024305",
      "last_verified": "2026-07-20"
    },
    {
      "id": 193,
      "name": "千代ケ崎砲台跡",
      "category": "park",
      "area": "神奈川",
      "city": "横須賀市",
      "lat": 35.2299,
      "lng": 139.7251,
      "url": "",
      "conditions": {
        "vaccination_cert": null,
        "size_limit": "",
        "fee": ""
      },
      "caution": "",
      "note": "",
      "sns": [],
      "source": "osm",
      "osm_id": "way/626401256",
      "last_verified": "2026-07-20"
    },
    {
      "id": 194,
      "name": "かにが沢公園",
      "category": "park",
      "area": "神奈川",
      "city": "座間市",
      "lat": 35.4953,
      "lng": 139.4089,
      "url": "",
      "conditions": {
        "vaccination_cert": null,
        "size_limit": "",
        "fee": ""
      },
      "caution": "",
      "note": "",
      "sns": [],
      "source": "osm",
      "osm_id": "way/629019885",
      "last_verified": "2026-07-20"
    },
    {
      "id": 195,
      "name": "小園公園",
      "category": "park",
      "area": "神奈川",
      "city": "綾瀬市",
      "lat": 35.455,
      "lng": 139.409,
      "url": "",
      "conditions": {
        "vaccination_cert": null,
        "size_limit": "",
        "fee": ""
      },
      "caution": "",
      "note": "",
      "sns": [],
      "source": "osm",
      "osm_id": "way/633651928",
      "last_verified": "2026-07-20"
    },
    {
      "id": 196,
      "name": "観音崎公園",
      "category": "park",
      "area": "神奈川",
      "city": "横須賀市",
      "lat": 35.2559,
      "lng": 139.7381,
      "url": "https://www.kanagawaparks.com/kannon/",
      "conditions": {
        "vaccination_cert": null,
        "size_limit": "",
        "fee": ""
      },
      "caution": "",
      "note": "",
      "sns": [],
      "source": "osm",
      "osm_id": "way/640826577",
      "last_verified": "2026-07-20"
    },
    {
      "id": 197,
      "name": "座間谷戸山公園",
      "category": "park",
      "area": "神奈川",
      "city": "座間市",
      "lat": 35.4875,
      "lng": 139.404,
      "url": "",
      "conditions": {
        "vaccination_cert": null,
        "size_limit": "",
        "fee": ""
      },
      "caution": "",
      "note": "",
      "sns": [],
      "source": "osm",
      "osm_id": "way/64202206",
      "last_verified": "2026-07-20"
    },
    {
      "id": 198,
      "name": "塚山公園",
      "category": "park",
      "area": "神奈川",
      "city": "横須賀市",
      "lat": 35.2795,
      "lng": 139.6408,
      "url": "",
      "conditions": {
        "vaccination_cert": null,
        "size_limit": "",
        "fee": ""
      },
      "caution": "",
      "note": "",
      "sns": [],
      "source": "osm",
      "osm_id": "way/651031994",
      "last_verified": "2026-07-20"
    },
    {
      "id": 199,
      "name": "玄海田公園",
      "category": "park",
      "area": "神奈川",
      "city": "横浜市緑区",
      "lat": 35.5177,
      "lng": 139.4941,
      "url": "",
      "conditions": {
        "vaccination_cert": null,
        "size_limit": "",
        "fee": ""
      },
      "caution": "",
      "note": "",
      "sns": [],
      "source": "osm",
      "osm_id": "way/651477184",
      "last_verified": "2026-07-20"
    },
    {
      "id": 200,
      "name": "一之宮公園",
      "category": "park",
      "area": "神奈川",
      "city": "寒川町",
      "lat": 35.3674,
      "lng": 139.3774,
      "url": "",
      "conditions": {
        "vaccination_cert": null,
        "size_limit": "",
        "fee": ""
      },
      "caution": "",
      "note": "",
      "sns": [],
      "source": "osm",
      "osm_id": "way/653390258",
      "last_verified": "2026-07-20"
    },
    {
      "id": 201,
      "name": "池子の森自然公園",
      "category": "park",
      "area": "神奈川",
      "city": "逗子市",
      "lat": 35.3066,
      "lng": 139.5846,
      "url": "",
      "conditions": {
        "vaccination_cert": null,
        "size_limit": "",
        "fee": ""
      },
      "caution": "",
      "note": "",
      "sns": [],
      "source": "osm",
      "osm_id": "way/657493734",
      "last_verified": "2026-07-20"
    },
    {
      "id": 202,
      "name": "大崎公園",
      "category": "park",
      "area": "神奈川",
      "city": "逗子市",
      "lat": 35.2938,
      "lng": 139.5593,
      "url": "",
      "conditions": {
        "vaccination_cert": null,
        "size_limit": "",
        "fee": ""
      },
      "caution": "",
      "note": "",
      "sns": [],
      "source": "osm",
      "osm_id": "way/659195113",
      "last_verified": "2026-07-20"
    },
    {
      "id": 203,
      "name": "横浜公園",
      "category": "park",
      "area": "神奈川",
      "city": "横浜市中区",
      "lat": 35.4438,
      "lng": 139.6402,
      "url": "",
      "conditions": {
        "vaccination_cert": null,
        "size_limit": "",
        "fee": ""
      },
      "caution": "",
      "note": "",
      "sns": [],
      "source": "osm",
      "osm_id": "way/70364651",
      "last_verified": "2026-07-20"
    },
    {
      "id": 204,
      "name": "鎌倉中央公園",
      "category": "park",
      "area": "神奈川",
      "city": "鎌倉市",
      "lat": 35.3346,
      "lng": 139.5319,
      "url": "",
      "conditions": {
        "vaccination_cert": null,
        "size_limit": "",
        "fee": ""
      },
      "caution": "",
      "note": "",
      "sns": [],
      "source": "osm",
      "osm_id": "way/712587254",
      "last_verified": "2026-07-20"
    },
    {
      "id": 205,
      "name": "鎌倉広町緑地",
      "category": "park",
      "area": "神奈川",
      "city": "鎌倉市",
      "lat": 35.3127,
      "lng": 139.5093,
      "url": "",
      "conditions": {
        "vaccination_cert": null,
        "size_limit": "",
        "fee": ""
      },
      "caution": "",
      "note": "",
      "sns": [],
      "source": "osm",
      "osm_id": "way/746498044",
      "last_verified": "2026-07-20"
    },
    {
      "id": 206,
      "name": "津久井湖城山公園",
      "category": "park",
      "area": "神奈川",
      "city": "相模原市緑区",
      "lat": 35.5818,
      "lng": 139.2795,
      "url": "",
      "conditions": {
        "vaccination_cert": null,
        "size_limit": "",
        "fee": ""
      },
      "caution": "",
      "note": "",
      "sns": [],
      "source": "osm",
      "osm_id": "way/765326143",
      "last_verified": "2026-07-20"
    },
    {
      "id": 207,
      "name": "小園東公園",
      "category": "park",
      "area": "神奈川",
      "city": "綾瀬市",
      "lat": 35.4492,
      "lng": 139.4134,
      "url": "",
      "conditions": {
        "vaccination_cert": null,
        "size_limit": "",
        "fee": ""
      },
      "caution": "",
      "note": "",
      "sns": [],
      "source": "osm",
      "osm_id": "way/784958569",
      "last_verified": "2026-07-20"
    },
    {
      "id": 208,
      "name": "海芝公園",
      "category": "park",
      "area": "神奈川",
      "city": "横浜市鶴見区",
      "lat": 35.4857,
      "lng": 139.6999,
      "url": "",
      "conditions": {
        "vaccination_cert": null,
        "size_limit": "",
        "fee": ""
      },
      "caution": "",
      "note": "",
      "sns": [],
      "source": "osm",
      "osm_id": "way/81895739",
      "last_verified": "2026-07-20"
    },
    {
      "id": 209,
      "name": "おだわら諏訪の原公園",
      "category": "park",
      "area": "神奈川",
      "city": "小田原市",
      "lat": 35.2828,
      "lng": 139.1342,
      "url": "http://www.pref.kanagawa.jp/docs/tu5/cnt/f6599/p19702.html",
      "conditions": {
        "vaccination_cert": null,
        "size_limit": "",
        "fee": ""
      },
      "caution": "",
      "note": "",
      "sns": [],
      "source": "osm",
      "osm_id": "way/829009842",
      "last_verified": "2026-07-20"
    },
    {
      "id": 210,
      "name": "はやま三ヵ岡山緑地",
      "category": "park",
      "area": "神奈川",
      "city": "葉山町",
      "lat": 35.268,
      "lng": 139.578,
      "url": "",
      "conditions": {
        "vaccination_cert": null,
        "size_limit": "",
        "fee": ""
      },
      "caution": "",
      "note": "",
      "sns": [],
      "source": "osm",
      "osm_id": "way/832490593",
      "last_verified": "2026-07-20"
    },
    {
      "id": 211,
      "name": "県立相模原公園",
      "category": "park",
      "area": "神奈川",
      "city": "相模原市南区",
      "lat": 35.5315,
      "lng": 139.3876,
      "url": "",
      "conditions": {
        "vaccination_cert": null,
        "size_limit": "",
        "fee": ""
      },
      "caution": "",
      "note": "",
      "sns": [],
      "source": "osm",
      "osm_id": "way/839613259",
      "last_verified": "2026-07-20"
    },
    {
      "id": 212,
      "name": "釜田第6公園",
      "category": "park",
      "area": "神奈川",
      "city": "綾瀬市",
      "lat": 35.4494,
      "lng": 139.4238,
      "url": "",
      "conditions": {
        "vaccination_cert": null,
        "size_limit": "",
        "fee": ""
      },
      "caution": "",
      "note": "",
      "sns": [],
      "source": "osm",
      "osm_id": "way/843739336",
      "last_verified": "2026-07-20"
    },
    {
      "id": 213,
      "name": "大上公園",
      "category": "park",
      "area": "神奈川",
      "city": "綾瀬市",
      "lat": 35.4642,
      "lng": 139.424,
      "url": "",
      "conditions": {
        "vaccination_cert": null,
        "size_limit": "",
        "fee": ""
      },
      "caution": "",
      "note": "",
      "sns": [],
      "source": "osm",
      "osm_id": "way/845916886",
      "last_verified": "2026-07-20"
    },
    {
      "id": 214,
      "name": "吉岡東公園",
      "category": "park",
      "area": "神奈川",
      "city": "綾瀬市",
      "lat": 35.425,
      "lng": 139.4304,
      "url": "",
      "conditions": {
        "vaccination_cert": null,
        "size_limit": "",
        "fee": ""
      },
      "caution": "",
      "note": "",
      "sns": [],
      "source": "osm",
      "osm_id": "way/847364790",
      "last_verified": "2026-07-20"
    },
    {
      "id": 215,
      "name": "東高根森林公園",
      "category": "park",
      "area": "神奈川",
      "city": "川崎市宮前区",
      "lat": 35.6045,
      "lng": 139.5865,
      "url": "",
      "conditions": {
        "vaccination_cert": null,
        "size_limit": "",
        "fee": ""
      },
      "caution": "",
      "note": "",
      "sns": [],
      "source": "osm",
      "osm_id": "way/86645041",
      "last_verified": "2026-07-20"
    },
    {
      "id": 216,
      "name": "東扇島西公園",
      "category": "park",
      "area": "神奈川",
      "city": "川崎市川崎区",
      "lat": 35.4868,
      "lng": 139.7438,
      "url": "",
      "conditions": {
        "vaccination_cert": null,
        "size_limit": "",
        "fee": ""
      },
      "caution": "",
      "note": "",
      "sns": [],
      "source": "osm",
      "osm_id": "way/88498413",
      "last_verified": "2026-07-20"
    },
    {
      "id": 217,
      "name": "瓢箪塚古墳",
      "category": "park",
      "area": "神奈川",
      "city": "海老名市",
      "lat": 35.4479,
      "lng": 139.4017,
      "url": "",
      "conditions": {
        "vaccination_cert": null,
        "size_limit": "",
        "fee": ""
      },
      "caution": "",
      "note": "",
      "sns": [],
      "source": "osm",
      "osm_id": "way/885609748",
      "last_verified": "2026-07-20"
    },
    {
      "id": 218,
      "name": "ウイトリッヒの森",
      "category": "park",
      "area": "神奈川",
      "city": "横浜市戸塚区",
      "lat": 35.376,
      "lng": 139.4982,
      "url": "",
      "conditions": {
        "vaccination_cert": null,
        "size_limit": "",
        "fee": ""
      },
      "caution": "",
      "note": "",
      "sns": [],
      "source": "osm",
      "osm_id": "way/90561460",
      "last_verified": "2026-07-20"
    },
    {
      "id": 219,
      "name": "掃部山公園",
      "category": "park",
      "area": "神奈川",
      "city": "横浜市西区",
      "lat": 35.4532,
      "lng": 139.6255,
      "url": "",
      "conditions": {
        "vaccination_cert": null,
        "size_limit": "",
        "fee": ""
      },
      "caution": "",
      "note": "",
      "sns": [],
      "source": "osm",
      "osm_id": "way/94058448",
      "last_verified": "2026-07-20"
    },
    {
      "id": 220,
      "name": "野毛山公園",
      "category": "park",
      "area": "神奈川",
      "city": "横浜市西区",
      "lat": 35.4463,
      "lng": 139.6232,
      "url": "",
      "conditions": {
        "vaccination_cert": null,
        "size_limit": "",
        "fee": ""
      },
      "caution": "",
      "note": "",
      "sns": [],
      "source": "osm",
      "osm_id": "way/94893959",
      "last_verified": "2026-07-20"
    },
    {
      "id": 221,
      "name": "本牧山頂公園",
      "category": "park",
      "area": "神奈川",
      "city": "横浜市中区",
      "lat": 35.4255,
      "lng": 139.6603,
      "url": "",
      "conditions": {
        "vaccination_cert": null,
        "size_limit": "",
        "fee": ""
      },
      "caution": "",
      "note": "",
      "sns": [],
      "source": "osm",
      "osm_id": "way/95183768",
      "last_verified": "2026-07-20"
    },
    {
      "id": 222,
      "name": "大磯運動公園",
      "category": "park",
      "area": "神奈川",
      "city": "大磯町",
      "lat": 35.3124,
      "lng": 139.2914,
      "url": "https://www.oisopark.com/",
      "conditions": {
        "vaccination_cert": null,
        "size_limit": "",
        "fee": ""
      },
      "caution": "",
      "note": "",
      "sns": [],
      "source": "osm",
      "osm_id": "way/958611608",
      "last_verified": "2026-07-20"
    },
    {
      "id": 223,
      "name": "浮島町公園",
      "category": "park",
      "area": "神奈川",
      "city": "川崎市川崎区",
      "lat": 35.5217,
      "lng": 139.788,
      "url": "",
      "conditions": {
        "vaccination_cert": null,
        "size_limit": "",
        "fee": ""
      },
      "caution": "",
      "note": "",
      "sns": [],
      "source": "osm",
      "osm_id": "way/95926282",
      "last_verified": "2026-07-20"
    },