{
  "no": "15",
  "pref_name": "niigata",
  "spots": [
    {
      "id": 1,
      "name": "たにはま公園ドッグラン",
      "category": "dog_run",
      "area": "新潟",
      "city": "上越市",
      "lat": 37.1567,
      "lng": 138.1513,
      "url": "",
      "conditions": {
        "vaccination_cert": null,
        "size_limit": "",
        "fee": ""
      },
      "caution": "",
      "note": "",
      "sns": [],
      "source": "osm",
      "osm_id": "way/1254652377",
      "last_verified": "2026-07-20"
    },
    {
      "id": 2,
      "name": "新井総合公園",
      "category": "park",
      "area": "新潟",
      "city": "妙高市",
      "lat": 37.0139,
      "lng": 138.2335,
      "url": "",
      "conditions": {
        "vaccination_cert": null,
        "size_limit": "",
        "fee": ""
      },
      "caution": "",
      "note": "",
      "sns": [],
      "source": "osm",
      "osm_id": "way/1058227018",
      "last_verified": "2026-07-20"
    },
    {
      "id": 3,
      "name": "鳥屋野潟公園",
      "category": "park",
      "area": "新潟",
      "city": "新潟市中央区",
      "lat": 37.8803,
      "lng": 139.047,
      "url": "",
      "conditions": {
        "vaccination_cert": null,
        "size_limit": "",
        "fee": ""
      },
      "caution": "",
      "note": "",
      "sns": [],
      "source": "osm",
      "osm_id": "way/166910506",
      "last_verified": "2026-07-20"
    },
    {
      "id": 4,
      "name": "新潟県立植物園",
      "category": "park",
      "area": "新潟",
      "city": "新潟市秋葉区",
      "lat": 37.7596,
      "lng": 139.1127,
      "url": "",
      "conditions": {
        "vaccination_cert": null,
        "size_limit": "",
        "fee": ""
      },
      "caution": "",
      "note": "",
      "sns": [],
      "source": "osm",
      "osm_id": "way/339681466",
      "last_verified": "2026-07-20"
    },
    {
      "id": 5,
      "name": "北山池公園",
      "category": "park",
      "area": "新潟",
      "city": "新潟市江南区",
      "lat": 37.8736,
      "lng": 139.1211,
      "url": "",
      "conditions": {
        "vaccination_cert": null,
        "size_limit": "",
        "fee": ""
      },
      "caution": "",
      "note": "",
      "sns": [],
      "source": "osm",
      "osm_id": "way/340229046",
      "last_verified": "2026-07-20"
    },
    {
      "id": 6,
      "name": "三条市総合運動公園",
      "category": "park",
      "area": "新潟",
      "city": "三条市",
      "lat": 37.6041,
      "lng": 138.9821,
      "url": "",
      "conditions": {
        "vaccination_cert": null,
        "size_limit": "",
        "fee": ""
      },
      "caution": "",
      "note": "",
      "sns": [],
      "source": "osm",
      "osm_id": "way/344393622",
      "last_verified": "2026-07-20"
    },
    {
      "id": 7,
      "name": "新潟市歴史博物館みなとぴあ",
      "category": "park",
      "area": "新潟",
      "city": "新潟市中央区",
      "lat": 37.9303,
      "lng": 139.0575,
      "url": "",
      "conditions": {
        "vaccination_cert": null,
        "size_limit": "",
        "fee": ""
      },
      "caution": "",
      "note": "",
      "sns": [],
      "source": "osm",
      "osm_id": "way/351085658",
      "last_verified": "2026-07-20"
    },
    {
      "id": 8,
      "name": "白山公園",
      "category": "park",
      "area": "新潟",
      "city": "新潟市中央区",
      "lat": 37.9139,
      "lng": 139.0397,
      "url": "",
      "conditions": {
        "vaccination_cert": null,
        "size_limit": "",
        "fee": ""
      },
      "caution": "",
      "note": "",
      "sns": [],
      "source": "osm",
      "osm_id": "way/352707754",
      "last_verified": "2026-07-20"
    },
    {
      "id": 9,
      "name": "新潟県スポーツ公園",
      "category": "park",
      "area": "新潟",
      "city": "新潟市中央区",
      "lat": 37.8851,
      "lng": 139.0596,
      "url": "",
      "conditions": {
        "vaccination_cert": null,
        "size_limit": "",
        "fee": ""
      },
      "caution": "",
      "note": "",
      "sns": [],
      "source": "osm",
      "osm_id": "way/352750861",
      "last_verified": "2026-07-20"
    },
    {
      "id": 10,
      "name": "高田公園",
      "category": "park",
      "area": "新潟",
      "city": "上越市",
      "lat": 37.1091,
      "lng": 138.2546,
      "url": "",
      "conditions": {
        "vaccination_cert": null,
        "size_limit": "",
        "fee": ""
      },
      "caution": "",
      "note": "",
      "sns": [],
      "source": "osm",
      "osm_id": "way/406611424",
      "last_verified": "2026-07-20"
    },
    {
      "id": 11,
      "name": "関分公園",
      "category": "park",
      "area": "新潟",
      "city": "新潟市中央区",
      "lat": 37.9074,
      "lng": 139.0134,
      "url": "",
      "conditions": {
        "vaccination_cert": null,
        "size_limit": "",
        "fee": ""
      },
      "caution": "",
      "note": "",
      "sns": [],
      "source": "osm",
      "osm_id": "way/420302309",
      "last_verified": "2026-07-20"
    },
    {
      "id": 12,
      "name": "上堰潟公園",
      "category": "park",
      "area": "新潟",
      "city": "新潟市西蒲区",
      "lat": 37.7908,
      "lng": 138.8648,
      "url": "",
      "conditions": {
        "vaccination_cert": null,
        "size_limit": "",
        "fee": ""
      },
      "caution": "",
      "note": "",
      "sns": [],
      "source": "osm",
      "osm_id": "way/421434586",
      "last_verified": "2026-07-20"
    },
    {
      "id": 13,
      "name": "福島潟",
      "category": "park",
      "area": "新潟",
      "city": "新潟市北区",
      "lat": 37.9098,
      "lng": 139.2512,
      "url": "http://www.pavc.ne.jp/~hishikui/index.html",
      "conditions": {
        "vaccination_cert": null,
        "size_limit": "",
        "fee": ""
      },
      "caution": "",
      "note": "",
      "sns": [],
      "source": "osm",
      "osm_id": "way/464651395",
      "last_verified": "2026-07-20",
      "link_broken": true
    },
    {
      "id": 14,
      "name": "瓢湖水きん公園",
      "category": "park",
      "area": "新潟",
      "city": "阿賀野市",
      "lat": 37.8391,
      "lng": 139.2386,
      "url": "",
      "conditions": {
        "vaccination_cert": null,
        "size_limit": "",
        "fee": ""
      },
      "caution": "",
      "note": "",
      "sns": [],
      "source": "osm",
      "osm_id": "way/470694299",
      "last_verified": "2026-07-20"
    },
    {
      "id": 15,
      "name": "小出公園",
      "category": "park",
      "area": "新潟",
      "city": "魚沼市",
      "lat": 37.226,
      "lng": 138.9531,
      "url": "",
      "conditions": {
        "vaccination_cert": null,
        "size_limit": "",
        "fee": ""
      },
      "caution": "",
      "note": "",
      "sns": [],
      "source": "osm",
      "osm_id": "way/471883682",
      "last_verified": "2026-07-20"
    },
    {
      "id": 16,
      "name": "中央公園",
      "category": "park",
      "area": "新潟",
      "city": "湯沢町",
      "lat": 36.9336,
      "lng": 138.8277,
      "url": "",
      "conditions": {
        "vaccination_cert": null,
        "size_limit": "",
        "fee": ""
      },
      "caution": "",
      "note": "",
      "sns": [],
      "source": "osm",
      "osm_id": "way/471883696",
      "last_verified": "2026-07-20"
    },
    {
      "id": 17,
      "name": "十日町市総合公園",
      "category": "park",
      "area": "新潟",
      "city": "十日町市",
      "lat": 37.1215,
      "lng": 138.7669,
      "url": "",
      "conditions": {
        "vaccination_cert": null,
        "size_limit": "",
        "fee": ""
      },
      "caution": "",
      "note": "",
      "sns": [],
      "source": "osm",
      "osm_id": "way/471883697",
      "last_verified": "2026-07-20"
    },
    {
      "id": 18,
      "name": "白山運動公園",
      "category": "park",
      "area": "新潟",
      "city": "小千谷市",
      "lat": 37.3215,
      "lng": 138.7712,
      "url": "",
      "conditions": {
        "vaccination_cert": null,
        "size_limit": "",
        "fee": ""
      },
      "caution": "",
      "note": "",
      "sns": [],
      "source": "osm",
      "osm_id": "way/471883703",
      "last_verified": "2026-07-20"
    },
    {
      "id": 19,
      "name": "悠久山公園",
      "category": "park",
      "area": "新潟",
      "city": "長岡市",
      "lat": 37.4312,
      "lng": 138.882,
      "url": "https://www.city.nagaoka.niigata.jp/shisetsu/sports/oyama.html",
      "conditions": {
        "vaccination_cert": null,
        "size_limit": "",
        "fee": ""
      },
      "caution": "ペットの放し飼いは禁止されています。",
      "note": "",
      "sns": [],
      "source": "osm",
      "osm_id": "way/471883705",
      "last_verified": "2026-07-20"
    },
    {
      "id": 20,
      "name": "長岡ニュータウン運動公園",
      "category": "park",
      "area": "新潟",
      "city": "長岡市",
      "lat": 37.4345,
      "lng": 138.7484,
      "url": "",
      "conditions": {
        "vaccination_cert": null,
        "size_limit": "",
        "fee": ""
      },
      "caution": "",
      "note": "",
      "sns": [],
      "source": "osm",
      "osm_id": "way/471883732",
      "last_verified": "2026-07-20"
    },
    {
      "id": 21,
      "name": "国営越後丘陵公園",
      "category": "park",
      "area": "新潟",
      "city": "長岡市",
      "lat": 37.4182,
      "lng": 138.7505,
      "url": "",
      "conditions": {
        "vaccination_cert": null,
        "size_limit": "",
        "fee": ""
      },
      "caution": "",
      "note": "",
      "sns": [],
      "source": "osm",
      "osm_id": "way/471883737",
      "last_verified": "2026-07-20"
    },
    {
      "id": 22,
      "name": "五十公野公園",
      "category": "park",
      "area": "新潟",
      "city": "新発田市",
      "lat": 37.9386,
      "lng": 139.358,
      "url": "",
      "conditions": {
        "vaccination_cert": null,
        "size_limit": "",
        "fee": ""
      },
      "caution": "",
      "note": "",
      "sns": [],
      "source": "osm",
      "osm_id": "way/584619158",
      "last_verified": "2026-07-20"
    },
    {
      "id": 23,
      "name": "阿賀野川河川公園",
      "category": "park",
      "area": "新潟",
      "city": "新潟市東区",
      "lat": 37.917,
      "lng": 139.1417,
      "url": "",
      "conditions": {
        "vaccination_cert": null,
        "size_limit": "",
        "fee": ""
      },
      "caution": "",
      "note": "",
      "sns": [],
      "source": "osm",
      "osm_id": "way/584894941",
      "last_verified": "2026-07-20"
    },
    {
      "id": 24,
      "name": "加茂山公園",
      "category": "park",
      "area": "新潟",
      "city": "加茂市",
      "lat": 37.6557,
      "lng": 139.0539,
      "url": "",
      "conditions": {
        "vaccination_cert": null,
        "size_limit": "",
        "fee": ""
      },
      "caution": "",
      "note": "",
      "sns": [],
      "source": "osm",
      "osm_id": "way/591498559",
      "last_verified": "2026-07-20"
    },
    {
      "id": 25,
      "name": "美山公園",
      "category": "park",
      "area": "新潟",
      "city": "糸魚川市",
      "lat": 37.0247,
      "lng": 137.864,
      "url": "",
      "conditions": {
        "vaccination_cert": null,
        "size_limit": "",
        "fee": ""
      },
      "caution": "",
      "note": "",
      "sns": [],
      "source": "osm",
      "osm_id": "way/606566850",
      "last_verified": "2026-07-20"
    },
    {
      "id": 26,
      "name": "水道公園",
      "category": "park",
      "area": "新潟",
      "city": "長岡市",
      "lat": 37.4575,
      "lng": 138.8434,
      "url": "https://www.city.nagaoka.niigata.jp/shisetsu/sports/suidou.html",
      "conditions": {
        "vaccination_cert": null,
        "size_limit": "",
        "fee": ""
      },
      "caution": "ペットの放し飼いは禁止されています。",
      "note": "",
      "sns": [],
      "source": "osm",
      "osm_id": "way/642930166",
      "last_verified": "2026-07-20"
    },
    {
      "id": 27,
      "name": "きらら西公園",
      "category": "park",
      "area": "新潟",
      "city": "新潟市西区",
      "lat": 37.8336,
      "lng": 138.9081,
      "url": "",
      "conditions": {
        "vaccination_cert": null,
        "size_limit": "",
        "fee": ""
      },
      "caution": "",
      "note": "",
      "sns": [],
      "source": "osm",
      "osm_id": "way/653746251",
      "last_verified": "2026-07-20"
    },
    {
      "id": 28,
      "name": "月岡カリオンパーク",
      "category": "park",
      "area": "新潟",
      "city": "新発田市",
      "lat": 37.8844,
      "lng": 139.3069,
      "url": "",
      "conditions": {
        "vaccination_cert": null,
        "size_limit": "",
        "fee": ""
      },
      "caution": "",
      "note": "",
      "sns": [],
      "source": "osm",
      "osm_id": "way/657142806",
      "last_verified": "2026-07-20"
    },
    {
      "id": 29,
      "name": "五智公園",
      "category": "park",
      "area": "新潟",
      "city": "上越市",
      "lat": 37.1644,
      "lng": 138.2186,
      "url": "",
      "conditions": {
        "vaccination_cert": null,
        "size_limit": "",
        "fee": ""
      },
      "caution": "",
      "note": "",
      "sns": [],
      "source": "osm",
      "osm_id": "way/679502055",
      "last_verified": "2026-07-20"
    },
    {
      "id": 30,
      "name": "戊辰公園",
      "category": "park",
      "area": "新潟",
      "city": "新潟市中央区",
      "lat": 37.9146,
      "lng": 139.0239,
      "url": "",
      "conditions": {
        "vaccination_cert": null,
        "size_limit": "",
        "fee": ""
      },
      "caution": "",
      "note": "",
      "sns": [],
      "source": "osm",
      "osm_id": "way/719960672",
      "last_verified": "2026-07-20"
    },
    {
      "id": 31,
      "name": "村松公園",
      "category": "park",
      "area": "新潟",
      "city": "五泉市",
      "lat": 37.6913,
      "lng": 139.1898,
      "url": "",
      "conditions": {
        "vaccination_cert": null,
        "size_limit": "",
        "fee": ""
      },
      "caution": "",
      "note": "",
      "sns": [],
      "source": "osm",
      "osm_id": "way/762681160",
      "last_verified": "2026-07-20"
    },
    {
      "id": 32,
      "name": "雪国植物園",
      "category": "park",
      "area": "新潟",
      "city": "長岡市",
      "lat": 37.4642,
      "lng": 138.7457,
      "url": "http://www.niks.or.jp/syokubut/",
      "conditions": {
        "vaccination_cert": null,
        "size_limit": "",
        "fee": "400 JPY/person;50 JPY/junior;0 JPY/preschool"
      },
      "caution": "",
      "note": "",
      "sns": [],
      "source": "osm",
      "osm_id": "way/875983377",
      "last_verified": "2026-07-20"
    },
    {
      "id": 33,
      "name": "阿賀野川ふれあい公園",
      "category": "park",
      "area": "新潟",
      "city": "新潟市北区",
      "lat": 37.9303,
      "lng": 139.1493,
      "url": "",
      "conditions": {
        "vaccination_cert": null,
        "size_limit": "",
        "fee": ""
      },
      "caution": "",
      "note": "",
      "sns": [],
      "source": "osm",
      "osm_id": "way/941165544",
      "last_verified": "2026-07-20"
    }
  ]
}
