{
  "no": "47",
  "pref_name": "okinawa",
  "spots": [
    {
      "id": 1,
      "name": "Sea Lake Zakimi Private Dog Park",
      "category": "dog_run",
      "area": "沖縄",
      "city": "読谷村",
      "lat": 26.4104,
      "lng": 127.7519,
      "url": "",
      "conditions": {
        "vaccination_cert": null,
        "size_limit": "",
        "fee": ""
      },
      "caution": "",
      "note": "",
      "sns": [],
      "source": "osm",
      "osm_id": "node/12519606583",
      "last_verified": "2026-07-20"
    },
    {
      "id": 2,
      "name": "Chibana Dog Park",
      "category": "dog_run",
      "area": "沖縄",
      "city": "沖縄市",
      "lat": 26.3673,
      "lng": 127.795,
      "url": "",
      "conditions": {
        "vaccination_cert": null,
        "size_limit": "",
        "fee": ""
      },
      "caution": "",
      "note": "",
      "sns": [],
      "source": "osm",
      "osm_id": "way/784697581",
      "last_verified": "2026-07-20"
    },
    {
      "id": 3,
      "name": "北谷公園",
      "category": "park",
      "area": "沖縄",
      "city": "北谷町",
      "lat": 26.3116,
      "lng": 127.7583,
      "url": "",
      "conditions": {
        "vaccination_cert": null,
        "size_limit": "",
        "fee": ""
      },
      "caution": "",
      "note": "",
      "sns": [],
      "source": "osm",
      "osm_id": "relation/5611228",
      "last_verified": "2026-07-20"
    },
    {
      "id": 4,
      "name": "宜野湾海浜公園",
      "category": "park",
      "area": "沖縄",
      "city": "宜野湾市",
      "lat": 26.2811,
      "lng": 127.7344,
      "url": "",
      "conditions": {
        "vaccination_cert": null,
        "size_limit": "",
        "fee": ""
      },
      "caution": "",
      "note": "",
      "sns": [],
      "source": "osm",
      "osm_id": "relation/5975986",
      "last_verified": "2026-07-20"
    },
    {
      "id": 5,
      "name": "21世紀の森公園",
      "category": "park",
      "area": "沖縄",
      "city": "名護市",
      "lat": 26.5916,
      "lng": 127.9698,
      "url": "",
      "conditions": {
        "vaccination_cert": null,
        "size_limit": "",
        "fee": ""
      },
      "caution": "",
      "note": "",
      "sns": [],
      "source": "osm",
      "osm_id": "relation/6191653",
      "last_verified": "2026-07-20"
    },
    {
      "id": 6,
      "name": "名護城公園",
      "category": "park",
      "area": "沖縄",
      "city": "名護市",
      "lat": 26.5913,
      "lng": 127.9953,
      "url": "",
      "conditions": {
        "vaccination_cert": null,
        "size_limit": "",
        "fee": ""
      },
      "caution": "",
      "note": "",
      "sns": [],
      "source": "osm",
      "osm_id": "relation/6197592",
      "last_verified": "2026-07-20"
    },
    {
      "id": 7,
      "name": "中城公園",
      "category": "park",
      "area": "沖縄",
      "city": "中城村",
      "lat": 26.2829,
      "lng": 127.8,
      "url": "",
      "conditions": {
        "vaccination_cert": null,
        "size_limit": "",
        "fee": ""
      },
      "caution": "",
      "note": "",
      "sns": [],
      "source": "osm",
      "osm_id": "relation/6202089",
      "last_verified": "2026-07-20"
    },
    {
      "id": 8,
      "name": "海洋博公園",
      "category": "park",
      "area": "沖縄",
      "city": "本部町",
      "lat": 26.6897,
      "lng": 127.8798,
      "url": "https://oki-park.jp/",
      "conditions": {
        "vaccination_cert": null,
        "size_limit": "",
        "fee": ""
      },
      "caution": "",
      "note": "",
      "sns": [],
      "source": "osm",
      "osm_id": "relation/6210772",
      "last_verified": "2026-07-20"
    },
    {
      "id": 9,
      "name": "沖縄県総合運動公園",
      "category": "park",
      "area": "沖縄",
      "city": "沖縄市",
      "lat": 26.3079,
      "lng": 127.8234,
      "url": "https://okinawa-kenso.com/",
      "conditions": {
        "vaccination_cert": null,
        "size_limit": "",
        "fee": ""
      },
      "caution": "",
      "note": "",
      "sns": [],
      "source": "osm",
      "osm_id": "relation/6213951",
      "last_verified": "2026-07-20"
    },
    {
      "id": 10,
      "name": "具志川総合運動公園",
      "category": "park",
      "area": "沖縄",
      "city": "うるま市",
      "lat": 26.3569,
      "lng": 127.8652,
      "url": "",
      "conditions": {
        "vaccination_cert": null,
        "size_limit": "",
        "fee": ""
      },
      "caution": "",
      "note": "",
      "sns": [],
      "source": "osm",
      "osm_id": "relation/6263299",
      "last_verified": "2026-07-20"
    },
    {
      "id": 11,
      "name": "浦添大公園",
      "category": "park",
      "area": "沖縄",
      "city": "浦添市",
      "lat": 26.2504,
      "lng": 127.7295,
      "url": "",
      "conditions": {
        "vaccination_cert": null,
        "size_limit": "",
        "fee": ""
      },
      "caution": "",
      "note": "",
      "sns": [],
      "source": "osm",
      "osm_id": "relation/7809728",
      "last_verified": "2026-07-20"
    },
    {
      "id": 12,
      "name": "730シィーシィーパーク",
      "category": "park",
      "area": "沖縄",
      "city": "石垣市",
      "lat": 24.3384,
      "lng": 124.1574,
      "url": "",
      "conditions": {
        "vaccination_cert": null,
        "size_limit": "",
        "fee": ""
      },
      "caution": "",
      "note": "",
      "sns": [],
      "source": "osm",
      "osm_id": "way/1125342261",
      "last_verified": "2026-07-20"
    },
    {
      "id": 13,
      "name": "識名園",
      "category": "park",
      "area": "沖縄",
      "city": "那覇市",
      "lat": 26.2041,
      "lng": 127.7157,
      "url": "",
      "conditions": {
        "vaccination_cert": null,
        "size_limit": "",
        "fee": ""
      },
      "caution": "",
      "note": "",
      "sns": [],
      "source": "osm",
      "osm_id": "way/124875236",
      "last_verified": "2026-07-20"
    },
    {
      "id": 14,
      "name": "与儀公園",
      "category": "park",
      "area": "沖縄",
      "city": "那覇市",
      "lat": 26.2086,
      "lng": 127.6926,
      "url": "",
      "conditions": {
        "vaccination_cert": null,
        "size_limit": "",
        "fee": ""
      },
      "caution": "",
      "note": "",
      "sns": [],
      "source": "osm",
      "osm_id": "way/168683745",
      "last_verified": "2026-07-20"
    },
    {
      "id": 15,
      "name": "道の駅「喜名番所」",
      "category": "park",
      "area": "沖縄",
      "city": "読谷村",
      "lat": 26.3985,
      "lng": 127.758,
      "url": "",
      "conditions": {
        "vaccination_cert": null,
        "size_limit": "",
        "fee": ""
      },
      "caution": "",
      "note": "",
      "sns": [],
      "source": "osm",
      "osm_id": "way/189192553",
      "last_verified": "2026-07-20"
    },
    {
      "id": 16,
      "name": "ANA SPORTS PARK 浦添(浦添運動公園)",
      "category": "park",
      "area": "沖縄",
      "city": "浦添市",
      "lat": 26.2511,
      "lng": 127.7234,
      "url": "",
      "conditions": {
        "vaccination_cert": null,
        "size_limit": "",
        "fee": ""
      },
      "caution": "",
      "note": "",
      "sns": [],
      "source": "osm",
      "osm_id": "way/233973634",
      "last_verified": "2026-07-20"
    },
    {
      "id": 17,
      "name": "首里城公園",
      "category": "park",
      "area": "沖縄",
      "city": "那覇市",
      "lat": 26.2174,
      "lng": 127.7182,
      "url": "",
      "conditions": {
        "vaccination_cert": null,
        "size_limit": "",
        "fee": ""
      },
      "caution": "",
      "note": "",
      "sns": [],
      "source": "osm",
      "osm_id": "way/380509890",
      "last_verified": "2026-07-20"
    },
    {
      "id": 18,
      "name": "つつじエコパーク",
      "category": "park",
      "area": "沖縄",
      "city": "東村",
      "lat": 26.6411,
      "lng": 128.158,
      "url": "",
      "conditions": {
        "vaccination_cert": null,
        "size_limit": "",
        "fee": "有料"
      },
      "caution": "",
      "note": "",
      "sns": [],
      "source": "osm",
      "osm_id": "way/414563942",
      "last_verified": "2026-07-20"
    },
    {
      "id": 19,
      "name": "国頭村森林公園",
      "category": "park",
      "area": "沖縄",
      "city": "国頭村",
      "lat": 26.7329,
      "lng": 128.1912,
      "url": "https://www.kunigami-forest-park.org/",
      "conditions": {
        "vaccination_cert": null,
        "size_limit": "",
        "fee": ""
      },
      "caution": "",
      "note": "",
      "sns": [],
      "source": "osm",
      "osm_id": "way/415221750",
      "last_verified": "2026-07-20"
    },
    {
      "id": 20,
      "name": "平和祈念公園",
      "category": "park",
      "area": "沖縄",
      "city": "糸満市",
      "lat": 26.0955,
      "lng": 127.7232,
      "url": "https://heiwa-irei-okinawa.jp/",
      "conditions": {
        "vaccination_cert": null,
        "size_limit": "",
        "fee": ""
      },
      "caution": "",
      "note": "",
      "sns": [],
      "source": "osm",
      "osm_id": "way/420670062",
      "last_verified": "2026-07-20"
    },
    {
      "id": 21,
      "name": "奥武山公園",
      "category": "park",
      "area": "沖縄",
      "city": "那覇市",
      "lat": 26.2043,
      "lng": 127.6747,
      "url": "https://www.ounoyama.jp/",
      "conditions": {
        "vaccination_cert": null,
        "size_limit": "",
        "fee": ""
      },
      "caution": "",
      "note": "",
      "sns": [],
      "source": "osm",
      "osm_id": "way/53656607",
      "last_verified": "2026-07-20"
    },
    {
      "id": 22,
      "name": "末吉公園",
      "category": "park",
      "area": "沖縄",
      "city": "那覇市",
      "lat": 26.2288,
      "lng": 127.7144,
      "url": "",
      "conditions": {
        "vaccination_cert": null,
        "size_limit": "",
        "fee": ""
      },
      "caution": "",
      "note": "",
      "sns": [],
      "source": "osm",
      "osm_id": "way/54500385",
      "last_verified": "2026-07-20"
    },
    {
      "id": 23,
      "name": "豊崎海浜公園",
      "category": "park",
      "area": "沖縄",
      "city": "豊見城市",
      "lat": 26.1578,
      "lng": 127.6492,
      "url": "",
      "conditions": {
        "vaccination_cert": null,
        "size_limit": "",
        "fee": ""
      },
      "caution": "",
      "note": "",
      "sns": [],
      "source": "osm",
      "osm_id": "way/552161498",
      "last_verified": "2026-07-20"
    },
    {
      "id": 24,
      "name": "崇元寺公園",
      "category": "park",
      "area": "沖縄",
      "city": "那覇市",
      "lat": 26.2206,
      "lng": 127.6906,
      "url": "",
      "conditions": {
        "vaccination_cert": null,
        "size_limit": "",
        "fee": ""
      },
      "caution": "",
      "note": "",
      "sns": [],
      "source": "osm",
      "osm_id": "way/552616621",
      "last_verified": "2026-07-20"
    },
    {
      "id": 25,
      "name": "カンジンダム自然公園",
      "category": "park",
      "area": "沖縄",
      "city": "久米島町",
      "lat": 26.3596,
      "lng": 126.7392,
      "url": "",
      "conditions": {
        "vaccination_cert": null,
        "size_limit": "",
        "fee": ""
      },
      "caution": "",
      "note": "",
      "sns": [],
      "source": "osm",
      "osm_id": "way/587645694",
      "last_verified": "2026-07-20"
    },
    {
      "id": 26,
      "name": "バンナ公園",
      "category": "park",
      "area": "沖縄",
      "city": "石垣市",
      "lat": 24.3778,
      "lng": 124.1663,
      "url": "",
      "conditions": {
        "vaccination_cert": null,
        "size_limit": "",
        "fee": ""
      },
      "caution": "",
      "note": "",
      "sns": [],
      "source": "osm",
      "osm_id": "way/606830226",
      "last_verified": "2026-07-20"
    },
    {
      "id": 27,
      "name": "コザ運動公園",
      "category": "park",
      "area": "沖縄",
      "city": "沖縄市",
      "lat": 26.3326,
      "lng": 127.7872,
      "url": "https://www.kozapa-osi.jp/",
      "conditions": {
        "vaccination_cert": null,
        "size_limit": "",
        "fee": ""
      },
      "caution": "",
      "note": "",
      "sns": [],
      "source": "osm",
      "osm_id": "way/627662498",
      "last_verified": "2026-07-20"
    },
    {
      "id": 28,
      "name": "石垣市中央運動公園",
      "category": "park",
      "area": "沖縄",
      "city": "石垣市",
      "lat": 24.3446,
      "lng": 124.173,
      "url": "",
      "conditions": {
        "vaccination_cert": null,
        "size_limit": "",
        "fee": ""
      },
      "caution": "",
      "note": "",
      "sns": [],
      "source": "osm",
      "osm_id": "way/715276401",
      "last_verified": "2026-07-20"
    },
    {
      "id": 29,
      "name": "宮城公園",
      "category": "park",
      "area": "沖縄",
      "city": "浦添市",
      "lat": 26.2485,
      "lng": 127.7086,
      "url": "",
      "conditions": {
        "vaccination_cert": null,
        "size_limit": "",
        "fee": ""
      },
      "caution": "",
      "note": "",
      "sns": [],
      "source": "osm",
      "osm_id": "way/878923950",
      "last_verified": "2026-07-20"
    }
  ]
}
