{
  "no": "22",
  "pref_name": "shizuoka",
  "spots": [
    {
      "id": 1,
      "name": "わんわん広場 ドッグラン",
      "category": "dog_run",
      "area": "静岡",
      "city": "浜松市浜名区",
      "lat": 34.8181,
      "lng": 137.7327,
      "url": "",
      "conditions": {
        "vaccination_cert": null,
        "size_limit": "",
        "fee": ""
      },
      "caution": "",
      "note": "",
      "sns": [],
      "source": "osm",
      "osm_id": "node/3397755193",
      "last_verified": "2026-07-20"
    },
    {
      "id": 2,
      "name": "ドッグラン",
      "category": "dog_run",
      "area": "静岡",
      "city": "浜松市浜名区",
      "lat": 34.8402,
      "lng": 137.7491,
      "url": "",
      "conditions": {
        "vaccination_cert": null,
        "size_limit": "",
        "fee": ""
      },
      "caution": "",
      "note": "",
      "sns": [],
      "source": "osm",
      "osm_id": "node/3500523096",
      "last_verified": "2026-07-20"
    },
    {
      "id": 3,
      "name": "みちまる広場足柄",
      "category": "dog_run",
      "area": "静岡",
      "city": "小山町",
      "lat": 35.3131,
      "lng": 138.9691,
      "url": "",
      "conditions": {
        "vaccination_cert": null,
        "size_limit": "",
        "fee": ""
      },
      "caution": "",
      "note": "",
      "sns": [],
      "source": "osm",
      "osm_id": "node/4539793234",
      "last_verified": "2026-07-20"
    },
    {
      "id": 4,
      "name": "みちまる広場足柄",
      "category": "dog_run",
      "area": "静岡",
      "city": "小山町",
      "lat": 35.3129,
      "lng": 138.9675,
      "url": "",
      "conditions": {
        "vaccination_cert": null,
        "size_limit": "",
        "fee": ""
      },
      "caution": "",
      "note": "",
      "sns": [],
      "source": "osm",
      "osm_id": "node/4539793279",
      "last_verified": "2026-07-20"
    },
    {
      "id": 5,
      "name": "みちまる広場足柄",
      "category": "dog_run",
      "area": "静岡",
      "city": "御殿場市",
      "lat": 35.3143,
      "lng": 138.9621,
      "url": "",
      "conditions": {
        "vaccination_cert": null,
        "size_limit": "",
        "fee": ""
      },
      "caution": "",
      "note": "",
      "sns": [],
      "source": "osm",
      "osm_id": "node/4539794008",
      "last_verified": "2026-07-20"
    },
    {
      "id": 6,
      "name": "わんView広場",
      "category": "dog_run",
      "area": "静岡",
      "city": "下田市",
      "lat": 34.6789,
      "lng": 138.9524,
      "url": "https://ropeway.co.jp/dockrun/",
      "conditions": {
        "vaccination_cert": null,
        "size_limit": "小型犬に限ります",
        "fee": ""
      },
      "caution": "遊歩道・山頂ではリード必須。ロープウェイ利用時はキャリーケースが必要です。",
      "note": "",
      "sns": [],
      "source": "osm",
      "osm_id": "way/1426201476",
      "last_verified": "2026-07-20"
    },
    {
      "id": 7,
      "name": "+わん",
      "category": "dog_run",
      "area": "静岡",
      "city": "浜松市中央区",
      "lat": 34.7672,
      "lng": 137.6637,
      "url": "",
      "conditions": {
        "vaccination_cert": null,
        "size_limit": "",
        "fee": ""
      },
      "caution": "",
      "note": "",
      "sns": [],
      "source": "osm",
      "osm_id": "way/1437084430",
      "last_verified": "2026-07-20"
    },
    {
      "id": 8,
      "name": "ドッグラン　犬の森ポム",
      "category": "dog_run",
      "area": "静岡",
      "city": "浜松市浜名区",
      "lat": 34.7808,
      "lng": 137.7391,
      "url": "",
      "conditions": {
        "vaccination_cert": null,
        "size_limit": "",
        "fee": ""
      },
      "caution": "",
      "note": "",
      "sns": [],
      "source": "osm",
      "osm_id": "way/566527008",
      "last_verified": "2026-07-20"
    },
    {
      "id": 9,
      "name": "Dog Run",
      "category": "dog_run",
      "area": "静岡",
      "city": "浜松市中央区",
      "lat": 34.6972,
      "lng": 137.6079,
      "url": "",
      "conditions": {
        "vaccination_cert": null,
        "size_limit": "",
        "fee": "無料"
      },
      "caution": "",
      "note": "",
      "sns": [],
      "source": "osm",
      "osm_id": "way/651963734",
      "last_verified": "2026-07-20"
    },
    {
      "id": 10,
      "name": "ドッグラン",
      "category": "dog_run",
      "area": "静岡",
      "city": "浜松市中央区",
      "lat": 34.6948,
      "lng": 137.6457,
      "url": "",
      "conditions": {
        "vaccination_cert": null,
        "size_limit": "",
        "fee": ""
      },
      "caution": "",
      "note": "",
      "sns": [],
      "source": "osm",
      "osm_id": "way/675556023",
      "last_verified": "2026-07-20"
    },
    {
      "id": 11,
      "name": "ドッグラン",
      "category": "dog_run",
      "area": "静岡",
      "city": "藤枝市",
      "lat": 34.8459,
      "lng": 138.2345,
      "url": "",
      "conditions": {
        "vaccination_cert": null,
        "size_limit": "",
        "fee": ""
      },
      "caution": "",
      "note": "",
      "sns": [],
      "source": "osm",
      "osm_id": "way/905314619",
      "last_verified": "2026-07-20"
    },
    {
      "id": 12,
      "name": "和地山公園",
      "category": "park",
      "area": "静岡",
      "city": "浜松市中央区",
      "lat": 34.7285,
      "lng": 137.7173,
      "url": "",
      "conditions": {
        "vaccination_cert": null,
        "size_limit": "",
        "fee": ""
      },
      "caution": "",
      "note": "",
      "sns": [],
      "source": "osm",
      "osm_id": "relation/11749896",
      "last_verified": "2026-07-20"
    },
    {
      "id": 13,
      "name": "可美公園",
      "category": "park",
      "area": "静岡",
      "city": "浜松市中央区",
      "lat": 34.6867,
      "lng": 137.6944,
      "url": "https://www.city.hamamatsu.shizuoka.jp/koen-kan/park/parks/kami/index.html",
      "conditions": {
        "vaccination_cert": null,
        "size_limit": "",
        "fee": ""
      },
      "caution": "",
      "note": "",
      "sns": [],
      "source": "osm",
      "osm_id": "relation/3502023",
      "last_verified": "2026-07-20"
    },
    {
      "id": 14,
      "name": "佐鳴湖公園",
      "category": "park",
      "area": "静岡",
      "city": "浜松市中央区",
      "lat": 34.712,
      "lng": 137.6903,
      "url": "https://www.entetsuassist-dms.com/sanaru-park/",
      "conditions": {
        "vaccination_cert": null,
        "size_limit": "",
        "fee": ""
      },
      "caution": "",
      "note": "",
      "sns": [],
      "source": "osm",
      "osm_id": "relation/7325899",
      "last_verified": "2026-07-20"
    },
    {
      "id": 15,
      "name": "遠州灘海浜公園 白羽地区",
      "category": "park",
      "area": "静岡",
      "city": "浜松市中央区",
      "lat": 34.6638,
      "lng": 137.7328,
      "url": "",
      "conditions": {
        "vaccination_cert": null,
        "size_limit": "",
        "fee": ""
      },
      "caution": "",
      "note": "",
      "sns": [],
      "source": "osm",
      "osm_id": "way/1079232592",
      "last_verified": "2026-07-20"
    },
    {
      "id": 16,
      "name": "駿府城公園",
      "category": "park",
      "area": "静岡",
      "city": "静岡市葵区",
      "lat": 34.9793,
      "lng": 138.383,
      "url": "",
      "conditions": {
        "vaccination_cert": null,
        "size_limit": "",
        "fee": ""
      },
      "caution": "",
      "note": "",
      "sns": [],
      "source": "osm",
      "osm_id": "way/137926884",
      "last_verified": "2026-07-20"
    },
    {
      "id": 17,
      "name": "城北公園",
      "category": "park",
      "area": "静岡",
      "city": "静岡市葵区",
      "lat": 34.9894,
      "lng": 138.3786,
      "url": "",
      "conditions": {
        "vaccination_cert": null,
        "size_limit": "",
        "fee": ""
      },
      "caution": "",
      "note": "",
      "sns": [],
      "source": "osm",
      "osm_id": "way/158315071",
      "last_verified": "2026-07-20"
    },
    {
      "id": 18,
      "name": "笛吹段公園",
      "category": "park",
      "area": "静岡",
      "city": "焼津市",
      "lat": 34.8995,
      "lng": 138.3189,
      "url": "",
      "conditions": {
        "vaccination_cert": null,
        "size_limit": "",
        "fee": ""
      },
      "caution": "",
      "note": "",
      "sns": [],
      "source": "osm",
      "osm_id": "way/170743679",
      "last_verified": "2026-07-20"
    },
    {
      "id": 19,
      "name": "安倍川緑地",
      "category": "park",
      "area": "静岡",
      "city": "静岡市葵区",
      "lat": 34.969,
      "lng": 138.3641,
      "url": "",
      "conditions": {
        "vaccination_cert": null,
        "size_limit": "",
        "fee": ""
      },
      "caution": "",
      "note": "",
      "sns": [],
      "source": "osm",
      "osm_id": "way/173790292",
      "last_verified": "2026-07-20"
    },
    {
      "id": 20,
      "name": "都田総合公園",
      "category": "park",
      "area": "静岡",
      "city": "浜松市浜名区",
      "lat": 34.8194,
      "lng": 137.7272,
      "url": "",
      "conditions": {
        "vaccination_cert": null,
        "size_limit": "",
        "fee": ""
      },
      "caution": "",
      "note": "",
      "sns": [],
      "source": "osm",
      "osm_id": "way/189778567",
      "last_verified": "2026-07-20"
    },
    {
      "id": 21,
      "name": "はままつフラワーパーク",
      "category": "park",
      "area": "静岡",
      "city": "浜松市中央区",
      "lat": 34.7632,
      "lng": 137.6335,
      "url": "https://www.e-flowerpark.com/",
      "conditions": {
        "vaccination_cert": null,
        "size_limit": "",
        "fee": ""
      },
      "caution": "",
      "note": "",
      "sns": [],
      "source": "osm",
      "osm_id": "way/190130793",
      "last_verified": "2026-07-20"
    },
    {
      "id": 22,
      "name": "遠州灘海浜公園 中田島北地区",
      "category": "park",
      "area": "静岡",
      "city": "浜松市中央区",
      "lat": 34.6682,
      "lng": 137.7473,
      "url": "",
      "conditions": {
        "vaccination_cert": null,
        "size_limit": "",
        "fee": ""
      },
      "caution": "",
      "note": "",
      "sns": [],
      "source": "osm",
      "osm_id": "way/190399089",
      "last_verified": "2026-07-20"
    },
    {
      "id": 23,
      "name": "はままつフルーツパーク時之栖",
      "category": "park",
      "area": "静岡",
      "city": "浜松市浜名区",
      "lat": 34.8398,
      "lng": 137.7367,
      "url": "",
      "conditions": {
        "vaccination_cert": null,
        "size_limit": "",
        "fee": ""
      },
      "caution": "",
      "note": "",
      "sns": [],
      "source": "osm",
      "osm_id": "way/191529810",
      "last_verified": "2026-07-20"
    },
    {
      "id": 24,
      "name": "白滝公園",
      "category": "park",
      "area": "静岡",
      "city": "三島市",
      "lat": 35.1232,
      "lng": 138.9144,
      "url": "",
      "conditions": {
        "vaccination_cert": null,
        "size_limit": "",
        "fee": ""
      },
      "caution": "",
      "note": "",
      "sns": [],
      "source": "osm",
      "osm_id": "way/203830700",
      "last_verified": "2026-07-20"
    },
    {
      "id": 25,
      "name": "花川運動公園",
      "category": "park",
      "area": "静岡",
      "city": "浜松市中央区",
      "lat": 34.7738,
      "lng": 137.6889,
      "url": "http://hanakawa.lolipop.jp/",
      "conditions": {
        "vaccination_cert": null,
        "size_limit": "",
        "fee": ""
      },
      "caution": "",
      "note": "",
      "sns": [],
      "source": "osm",
      "osm_id": "way/260908824",
      "last_verified": "2026-07-20"
    },
    {
      "id": 26,
      "name": "新通町公園",
      "category": "park",
      "area": "静岡",
      "city": "富士市",
      "lat": 35.161,
      "lng": 138.6813,
      "url": "",
      "conditions": {
        "vaccination_cert": null,
        "size_limit": "",
        "fee": ""
      },
      "caution": "",
      "note": "",
      "sns": [],
      "source": "osm",
      "osm_id": "way/264424626",
      "last_verified": "2026-07-20"
    },
    {
      "id": 27,
      "name": "清見田公園",
      "category": "park",
      "area": "静岡",
      "city": "焼津市",
      "lat": 34.866,
      "lng": 138.3063,
      "url": "",
      "conditions": {
        "vaccination_cert": null,
        "size_limit": "",
        "fee": ""
      },
      "caution": "",
      "note": "",
      "sns": [],
      "source": "osm",
      "osm_id": "way/264981648",
      "last_verified": "2026-07-20"
    },
    {
      "id": 28,
      "name": "富士と港の見える公園",
      "category": "park",
      "area": "静岡",
      "city": "富士市",
      "lat": 35.1408,
      "lng": 138.6971,
      "url": "",
      "conditions": {
        "vaccination_cert": null,
        "size_limit": "",
        "fee": ""
      },
      "caution": "",
      "note": "",
      "sns": [],
      "source": "osm",
      "osm_id": "way/281975280",
      "last_verified": "2026-07-20"
    },
    {
      "id": 29,
      "name": "浜名湖ガーデンパーク",
      "category": "park",
      "area": "静岡",
      "city": "浜松市中央区",
      "lat": 34.7154,
      "lng": 137.6002,
      "url": "https://www.hamanako-gardenpark.jp/",
      "conditions": {
        "vaccination_cert": null,
        "size_limit": "",
        "fee": "無料"
      },
      "caution": "",
      "note": "",
      "sns": [],
      "source": "osm",
      "osm_id": "way/31959341",
      "last_verified": "2026-07-20"
    },
    {
      "id": 30,
      "name": "渚園",
      "category": "park",
      "area": "静岡",
      "city": "浜松市中央区",
      "lat": 34.6986,
      "lng": 137.6073,
      "url": "https://nagisaen.birukan.jp/",
      "conditions": {
        "vaccination_cert": null,
        "size_limit": "",
        "fee": ""
      },
      "caution": "",
      "note": "",
      "sns": [],
      "source": "osm",
      "osm_id": "way/31959357",
      "last_verified": "2026-07-20"
    },
    {
      "id": 31,
      "name": "愛鷹広域公園",
      "category": "park",
      "area": "静岡",
      "city": "沼津市",
      "lat": 35.1563,
      "lng": 138.8515,
      "url": "",
      "conditions": {
        "vaccination_cert": null,
        "size_limit": "",
        "fee": ""
      },
      "caution": "",
      "note": "",
      "sns": [],
      "source": "osm",
      "osm_id": "way/378515789",
      "last_verified": "2026-07-20"
    },
    {
      "id": 32,
      "name": "富士市総合運動公園",
      "category": "park",
      "area": "静岡",
      "city": "富士市",
      "lat": 35.1949,
      "lng": 138.6863,
      "url": "",
      "conditions": {
        "vaccination_cert": null,
        "size_limit": "",
        "fee": ""
      },
      "caution": "",
      "note": "",
      "sns": [],
      "source": "osm",
      "osm_id": "way/378518158",
      "last_verified": "2026-07-20"
    },
    {
      "id": 33,
      "name": "沼津御用邸記念公園",
      "category": "park",
      "area": "静岡",
      "city": "沼津市",
      "lat": 35.0711,
      "lng": 138.873,
      "url": "http://www.numazu-goyotei.com/",
      "conditions": {
        "vaccination_cert": null,
        "size_limit": "",
        "fee": ""
      },
      "caution": "",
      "note": "",
      "sns": [],
      "source": "osm",
      "osm_id": "way/403876890",
      "last_verified": "2026-07-20"
    },
    {
      "id": 34,
      "name": "河津バガテル公園 (フランス式庭園)",
      "category": "park",
      "area": "静岡",
      "city": "河津町",
      "lat": 34.7528,
      "lng": 138.9819,
      "url": "http://bagatelle.co.jp/",
      "conditions": {
        "vaccination_cert": null,
        "size_limit": "",
        "fee": ""
      },
      "caution": "",
      "note": "",
      "sns": [],
      "source": "osm",
      "osm_id": "way/439826065",
      "last_verified": "2026-07-20"
    },
    {
      "id": 35,
      "name": "浮島ヶ原自然公園",
      "category": "park",
      "area": "静岡",
      "city": "富士市",
      "lat": 35.1393,
      "lng": 138.7456,
      "url": "",
      "conditions": {
        "vaccination_cert": null,
        "size_limit": "",
        "fee": ""
      },
      "caution": "",
      "note": "",
      "sns": [],
      "source": "osm",
      "osm_id": "way/466007665",
      "last_verified": "2026-07-20"
    },
    {
      "id": 36,
      "name": "天竜川緑地",
      "category": "park",
      "area": "静岡",
      "city": "浜松市中央区",
      "lat": 34.7271,
      "lng": 137.7999,
      "url": "",
      "conditions": {
        "vaccination_cert": null,
        "size_limit": "",
        "fee": ""
      },
      "caution": "",
      "note": "",
      "sns": [],
      "source": "osm",
      "osm_id": "way/500543088",
      "last_verified": "2026-07-20"
    },
    {
      "id": 37,
      "name": "竜洋海洋公園",
      "category": "park",
      "area": "静岡",
      "city": "磐田市",
      "lat": 34.6516,
      "lng": 137.8032,
      "url": "",
      "conditions": {
        "vaccination_cert": null,
        "size_limit": "",
        "fee": ""
      },
      "caution": "",
      "note": "",
      "sns": [],
      "source": "osm",
      "osm_id": "way/500543790",
      "last_verified": "2026-07-20"
    },
    {
      "id": 38,
      "name": "静岡県立浜北森林公園",
      "category": "park",
      "area": "静岡",
      "city": "浜松市浜名区",
      "lat": 34.8468,
      "lng": 137.783,
      "url": "",
      "conditions": {
        "vaccination_cert": null,
        "size_limit": "",
        "fee": ""
      },
      "caution": "",
      "note": "",
      "sns": [],
      "source": "osm",
      "osm_id": "way/555942708",
      "last_verified": "2026-07-20"
    },
    {
      "id": 40,
      "name": "伊豆シャボテン公園",
      "category": "park",
      "area": "静岡",
      "city": "伊東市",
      "lat": 34.9072,
      "lng": 139.1007,
      "url": "",
      "conditions": {
        "vaccination_cert": null,
        "size_limit": "",
        "fee": ""
      },
      "caution": "",
      "note": "",
      "sns": [],
      "source": "osm",
      "osm_id": "way/562122669",
      "last_verified": "2026-07-20"
    },
    {
      "id": 41,
      "name": "富士山樹空の森",
      "category": "park",
      "area": "静岡",
      "city": "御殿場市",
      "lat": 35.2968,
      "lng": 138.8678,
      "url": "",
      "conditions": {
        "vaccination_cert": null,
        "size_limit": "",
        "fee": ""
      },
      "caution": "",
      "note": "",
      "sns": [],
      "source": "osm",
      "osm_id": "way/565426787",
      "last_verified": "2026-07-20"
    },
    {
      "id": 42,
      "name": "秩父宮記念公園",
      "category": "park",
      "area": "静岡",
      "city": "御殿場市",
      "lat": 35.2885,
      "lng": 138.9533,
      "url": "",
      "conditions": {
        "vaccination_cert": null,
        "size_limit": "",
        "fee": ""
      },
      "caution": "",
      "note": "",
      "sns": [],
      "source": "osm",
      "osm_id": "way/616431664",
      "last_verified": "2026-07-20"
    },
    {
      "id": 43,
      "name": "姫の沢公園",
      "category": "park",
      "area": "静岡",
      "city": "熱海市",
      "lat": 35.1191,
      "lng": 139.0506,
      "url": "",
      "conditions": {
        "vaccination_cert": null,
        "size_limit": "",
        "fee": ""
      },
      "caution": "",
      "note": "",
      "sns": [],
      "source": "osm",
      "osm_id": "way/62242472",
      "last_verified": "2026-07-20"
    },
    {
      "id": 44,
      "name": "丹野池公園",
      "category": "park",
      "area": "静岡",
      "city": "菊川市",
      "lat": 34.7315,
      "lng": 138.1312,
      "url": "",
      "conditions": {
        "vaccination_cert": null,
        "size_limit": "",
        "fee": ""
      },
      "caution": "",
      "note": "",
      "sns": [],
      "source": "osm",
      "osm_id": "way/688174829",
      "last_verified": "2026-07-20"
    },
    {
      "id": 45,
      "name": "蓮華寺池公園",
      "category": "park",
      "area": "静岡",
      "city": "藤枝市",
      "lat": 34.8748,
      "lng": 138.2539,
      "url": "",
      "conditions": {
        "vaccination_cert": null,
        "size_limit": "",
        "fee": ""
      },
      "caution": "",
      "note": "",
      "sns": [],
      "source": "osm",
      "osm_id": "way/688373835",
      "last_verified": "2026-07-20"
    },
    {
      "id": 46,
      "name": "さくらの里",
      "category": "park",
      "area": "静岡",
      "city": "伊東市",
      "lat": 34.9065,
      "lng": 139.091,
      "url": "",
      "conditions": {
        "vaccination_cert": null,
        "size_limit": "",
        "fee": ""
      },
      "caution": "",
      "note": "",
      "sns": [],
      "source": "osm",
      "osm_id": "way/691115265",
      "last_verified": "2026-07-20"
    },
    {
      "id": 47,
      "name": "２２世紀の丘公園",
      "category": "park",
      "area": "静岡",
      "city": "掛川市",
      "lat": 34.7753,
      "lng": 138.0601,
      "url": "",
      "conditions": {
        "vaccination_cert": null,
        "size_limit": "",
        "fee": ""
      },
      "caution": "",
      "note": "",
      "sns": [],
      "source": "osm",
      "osm_id": "way/694743171",
      "last_verified": "2026-07-20"
    },
    {
      "id": 48,
      "name": "世界一小さな公園",
      "category": "park",
      "area": "静岡",
      "city": "長泉町",
      "lat": 35.1349,
      "lng": 138.8986,
      "url": "",
      "conditions": {
        "vaccination_cert": null,
        "size_limit": "",
        "fee": ""
      },
      "caution": "",
      "note": "",
      "sns": [],
      "source": "osm",
      "osm_id": "way/733775052",
      "last_verified": "2026-07-20"
    },
    {
      "id": 49,
      "name": "大縄公園",
      "category": "park",
      "area": "静岡",
      "city": "熱海市",
      "lat": 35.046,
      "lng": 139.0812,
      "url": "",
      "conditions": {
        "vaccination_cert": null,
        "size_limit": "",
        "fee": ""
      },
      "caution": "",
      "note": "",
      "sns": [],
      "source": "osm",
      "osm_id": "way/737467618",
      "last_verified": "2026-07-20"
    },
    {
      "id": 50,
      "name": "丸火自然公園",
      "category": "park",
      "area": "静岡",
      "city": "富士市",
      "lat": 35.236,
      "lng": 138.7275,
      "url": "",
      "conditions": {
        "vaccination_cert": null,
        "size_limit": "",
        "fee": ""
      },
      "caution": "",
      "note": "",
      "sns": [],
      "source": "osm",
      "osm_id": "way/739718681",
      "last_verified": "2026-07-20"
    },
    {
      "id": 51,
      "name": "小笠山総合運動公園",
      "category": "park",
      "area": "静岡",
      "city": "袋井市",
      "lat": 34.7457,
      "lng": 137.9775,
      "url": "",
      "conditions": {
        "vaccination_cert": null,
        "size_limit": "",
        "fee": ""
      },
      "caution": "",
      "note": "",
      "sns": [],
      "source": "osm",
      "osm_id": "way/759068237",
      "last_verified": "2026-07-20"
    },
    {
      "id": 52,
      "name": "山宮スポーツ公園",
      "category": "park",
      "area": "静岡",
      "city": "富士宮市",
      "lat": 35.266,
      "lng": 138.6215,
      "url": "",
      "conditions": {
        "vaccination_cert": null,
        "size_limit": "",
        "fee": ""
      },
      "caution": "",
      "note": "",
      "sns": [],
      "source": "osm",
      "osm_id": "way/801448680",
      "last_verified": "2026-07-20"
    },
    {
      "id": 53,
      "name": "朝霧自然公園",
      "category": "park",
      "area": "静岡",
      "city": "富士宮市",
      "lat": 35.3841,
      "lng": 138.5839,
      "url": "",
      "conditions": {
        "vaccination_cert": null,
        "size_limit": "",
        "fee": ""
      },
      "caution": "",
      "note": "",
      "sns": [],
      "source": "osm",
      "osm_id": "way/801448707",
      "last_verified": "2026-07-20"
    }
  ]
}
