{
  "no": "13",
  "pref_name": "tokyo",
  "spots": [
    {
      "id": 1,
      "name": "豊洲ぐるりドッグラン",
      "category": "dog_run",
      "area": "東京",
      "city": "江東区",
      "lat": 35.6406,
      "lng": 139.7781,
      "url": "",
      "conditions": {
        "vaccination_cert": null,
        "size_limit": "",
        "fee": ""
      },
      "caution": "",
      "note": "",
      "sns": [],
      "source": "osm",
      "osm_id": "node/11374672982",
      "last_verified": "2026-07-20"
    },
    {
      "id": 2,
      "name": "昭和記念公園ドッグラン",
      "category": "dog_run",
      "area": "東京",
      "city": "立川市",
      "lat": 35.702,
      "lng": 139.4048,
      "url": "",
      "conditions": {
        "vaccination_cert": null,
        "size_limit": "",
        "fee": ""
      },
      "caution": "",
      "note": "",
      "sns": [],
      "source": "osm",
      "osm_id": "node/2129169671",
      "last_verified": "2026-07-20"
    },
    {
      "id": 3,
      "name": "Green dog",
      "category": "dog_run",
      "area": "東京",
      "city": "渋谷区",
      "lat": 35.6495,
      "lng": 139.7005,
      "url": "",
      "conditions": {
        "vaccination_cert": null,
        "size_limit": "",
        "fee": ""
      },
      "caution": "",
      "note": "",
      "sns": [],
      "source": "osm",
      "osm_id": "node/2356706340",
      "last_verified": "2026-07-20"
    },
    {
      "id": 4,
      "name": "Dog Garden",
      "category": "dog_run",
      "area": "東京",
      "city": "渋谷区",
      "lat": 35.6495,
      "lng": 139.7002,
      "url": "",
      "conditions": {
        "vaccination_cert": null,
        "size_limit": "",
        "fee": ""
      },
      "caution": "",
      "note": "",
      "sns": [],
      "source": "osm",
      "osm_id": "node/2356706362",
      "last_verified": "2026-07-20"
    },
    {
      "id": 5,
      "name": "ペットパーキング",
      "category": "dog_run",
      "area": "東京",
      "city": "北区",
      "lat": 35.7794,
      "lng": 139.7253,
      "url": "",
      "conditions": {
        "vaccination_cert": null,
        "size_limit": "",
        "fee": ""
      },
      "caution": "",
      "note": "",
      "sns": [],
      "source": "osm",
      "osm_id": "node/2558150633",
      "last_verified": "2026-07-20"
    },
    {
      "id": 6,
      "name": "東京ドギーズガーデン",
      "category": "dog_run",
      "area": "東京",
      "city": "青梅市",
      "lat": 35.7955,
      "lng": 139.3189,
      "url": "",
      "conditions": {
        "vaccination_cert": null,
        "size_limit": "",
        "fee": ""
      },
      "caution": "",
      "note": "",
      "sns": [],
      "source": "osm",
      "osm_id": "relation/18857358",
      "last_verified": "2026-07-20"
    },
    {
      "id": 7,
      "name": "ドッグラン",
      "category": "dog_run",
      "area": "東京",
      "city": "青梅市",
      "lat": 35.7937,
      "lng": 139.3161,
      "url": "https://petsone.cainz.com/shop/296/",
      "conditions": {
        "vaccination_cert": null,
        "size_limit": "",
        "fee": ""
      },
      "caution": "",
      "note": "",
      "sns": [],
      "source": "osm",
      "osm_id": "relation/18995842",
      "last_verified": "2026-07-20"
    },
    {
      "id": 8,
      "name": "つばさドッグラン",
      "category": "dog_run",
      "area": "東京",
      "city": "大田区",
      "lat": 35.5837,
      "lng": 139.7818,
      "url": "",
      "conditions": {
        "vaccination_cert": null,
        "size_limit": "",
        "fee": ""
      },
      "caution": "",
      "note": "",
      "sns": [],
      "source": "osm",
      "osm_id": "way/1118926821",
      "last_verified": "2026-07-20"
    },
    {
      "id": 9,
      "name": "ドッグラン",
      "category": "dog_run",
      "area": "東京",
      "city": "葛飾区",
      "lat": 35.7914,
      "lng": 139.8695,
      "url": "",
      "conditions": {
        "vaccination_cert": null,
        "size_limit": "",
        "fee": ""
      },
      "caution": "",
      "note": "",
      "sns": [],
      "source": "osm",
      "osm_id": "way/119014523",
      "last_verified": "2026-07-20"
    },
    {
      "id": 10,
      "name": "ドッグラン",
      "category": "dog_run",
      "area": "東京",
      "city": "世田谷区",
      "lat": 35.6622,
      "lng": 139.6127,
      "url": "",
      "conditions": {
        "vaccination_cert": null,
        "size_limit": "",
        "fee": ""
      },
      "caution": "",
      "note": "",
      "sns": [],
      "source": "osm",
      "osm_id": "way/328326164",
      "last_verified": "2026-07-20"
    },
    {
      "id": 11,
      "name": "たつみの森ドッグラン",
      "category": "dog_run",
      "area": "東京",
      "city": "江東区",
      "lat": 35.6483,
      "lng": 139.817,
      "url": "",
      "conditions": {
        "vaccination_cert": null,
        "size_limit": "",
        "fee": ""
      },
      "caution": "",
      "note": "",
      "sns": [],
      "source": "osm",
      "osm_id": "way/332865004",
      "last_verified": "2026-07-20"
    },
    {
      "id": 12,
      "name": "しおさいドッグラン",
      "category": "dog_run",
      "area": "東京",
      "city": "大田区",
      "lat": 35.5889,
      "lng": 139.7517,
      "url": "",
      "conditions": {
        "vaccination_cert": null,
        "size_limit": "",
        "fee": ""
      },
      "caution": "",
      "note": "",
      "sns": [],
      "source": "osm",
      "osm_id": "way/46705600",
      "last_verified": "2026-07-20"
    },
    {
      "id": 13,
      "name": "ドッグラン",
      "category": "dog_run",
      "area": "東京",
      "city": "小金井市",
      "lat": 35.7162,
      "lng": 139.5235,
      "url": "",
      "conditions": {
        "vaccination_cert": null,
        "size_limit": "",
        "fee": ""
      },
      "caution": "",
      "note": "",
      "sns": [],
      "source": "osm",
      "osm_id": "way/53440899",
      "last_verified": "2026-07-20"
    },
    {
      "id": 14,
      "name": "武蔵川公園 ドッグラン",
      "category": "dog_run",
      "area": "東京",
      "city": "武蔵野市",
      "lat": 35.7063,
      "lng": 139.5378,
      "url": "",
      "conditions": {
        "vaccination_cert": null,
        "size_limit": "",
        "fee": ""
      },
      "caution": "",
      "note": "",
      "sns": [],
      "source": "osm",
      "osm_id": "way/59277422",
      "last_verified": "2026-07-20"
    },
    {
      "id": 15,
      "name": "ドッグラン",
      "category": "dog_run",
      "area": "東京",
      "city": "目黒区",
      "lat": 35.624,
      "lng": 139.6642,
      "url": "",
      "conditions": {
        "vaccination_cert": null,
        "size_limit": "",
        "fee": ""
      },
      "caution": "",
      "note": "",
      "sns": [],
      "source": "osm",
      "osm_id": "way/646382600",
      "last_verified": "2026-07-20"
    },
    {
      "id": 16,
      "name": "代々木公園ドッグラン",
      "category": "dog_run",
      "area": "東京",
      "city": "渋谷区",
      "lat": 35.6729,
      "lng": 139.6941,
      "url": "",
      "conditions": {
        "vaccination_cert": null,
        "size_limit": "",
        "fee": ""
      },
      "caution": "",
      "note": "",
      "sns": [],
      "source": "osm",
      "osm_id": "way/680802488",
      "last_verified": "2026-07-20"
    },
    {
      "id": 17,
      "name": "ドッグラン",
      "category": "dog_run",
      "area": "東京",
      "city": "江東区",
      "lat": 35.672,
      "lng": 139.8084,
      "url": "",
      "conditions": {
        "vaccination_cert": null,
        "size_limit": "",
        "fee": ""
      },
      "caution": "",
      "note": "",
      "sns": [],
      "source": "osm",
      "osm_id": "way/683394371",
      "last_verified": "2026-07-20"
    },
    {
      "id": 18,
      "name": "ドッグラン",
      "category": "dog_run",
      "area": "東京",
      "city": "多摩市",
      "lat": 35.6402,
      "lng": 139.4635,
      "url": "",
      "conditions": {
        "vaccination_cert": null,
        "size_limit": "",
        "fee": ""
      },
      "caution": "",
      "note": "",
      "sns": [],
      "source": "osm",
      "osm_id": "way/815789047",
      "last_verified": "2026-07-20"
    },
    {
      "id": 19,
      "name": "Dog Run",
      "category": "dog_run",
      "area": "東京",
      "city": "港区",
      "lat": 35.6681,
      "lng": 139.7385,
      "url": "",
      "conditions": {
        "vaccination_cert": null,
        "size_limit": "",
        "fee": ""
      },
      "caution": "",
      "note": "",
      "sns": [],
      "source": "osm",
      "osm_id": "way/993050155",
      "last_verified": "2026-07-20"
    },
    {
      "id": 20,
      "name": "青戸七丁目共和公園",
      "category": "park",
      "area": "東京",
      "city": "葛飾区",
      "lat": 35.7539,
      "lng": 139.8577,
      "url": "",
      "conditions": {
        "vaccination_cert": null,
        "size_limit": "",
        "fee": ""
      },
      "caution": "",
      "note": "",
      "sns": [],
      "source": "osm",
      "osm_id": "relation/10176917",
      "last_verified": "2026-07-20"
    },
    {
      "id": 21,
      "name": "猿江恩賜公園",
      "category": "park",
      "area": "東京",
      "city": "江東区",
      "lat": 35.6882,
      "lng": 139.8185,
      "url": "",
      "conditions": {
        "vaccination_cert": null,
        "size_limit": "",
        "fee": ""
      },
      "caution": "",
      "note": "",
      "sns": [],
      "source": "osm",
      "osm_id": "relation/10288221",
      "last_verified": "2026-07-20"
    },
    {
      "id": 22,
      "name": "猿江恩賜公園",
      "category": "park",
      "area": "東京",
      "city": "江東区",
      "lat": 35.6908,
      "lng": 139.8183,
      "url": "",
      "conditions": {
        "vaccination_cert": null,
        "size_limit": "",
        "fee": ""
      },
      "caution": "",
      "note": "",
      "sns": [],
      "source": "osm",
      "osm_id": "relation/10288254",
      "last_verified": "2026-07-20"
    },
    {
      "id": 23,
      "name": "北砂緑道公園",
      "category": "park",
      "area": "東京",
      "city": "江東区",
      "lat": 35.6851,
      "lng": 139.8241,
      "url": "",
      "conditions": {
        "vaccination_cert": null,
        "size_limit": "",
        "fee": ""
      },
      "caution": "",
      "note": "",
      "sns": [],
      "source": "osm",
      "osm_id": "relation/10290614",
      "last_verified": "2026-07-20"
    },
    {
      "id": 24,
      "name": "水元スポーツセンター公園",
      "category": "park",
      "area": "東京",
      "city": "葛飾区",
      "lat": 35.7808,
      "lng": 139.8578,
      "url": "",
      "conditions": {
        "vaccination_cert": null,
        "size_limit": "",
        "fee": ""
      },
      "caution": "",
      "note": "",
      "sns": [],
      "source": "osm",
      "osm_id": "relation/10603600",
      "last_verified": "2026-07-20"
    },
    {
      "id": 25,
      "name": "大島緑道公園",
      "category": "park",
      "area": "東京",
      "city": "江東区",
      "lat": 35.6903,
      "lng": 139.8277,
      "url": "",
      "conditions": {
        "vaccination_cert": null,
        "size_limit": "",
        "fee": ""
      },
      "caution": "",
      "note": "",
      "sns": [],
      "source": "osm",
      "osm_id": "relation/11177389",
      "last_verified": "2026-07-20"
    },
    {
      "id": 26,
      "name": "中野区立 平和の森公園",
      "category": "park",
      "area": "東京",
      "city": "中野区",
      "lat": 35.7165,
      "lng": 139.6624,
      "url": "",
      "conditions": {
        "vaccination_cert": null,
        "size_limit": "",
        "fee": ""
      },
      "caution": "",
      "note": "",
      "sns": [],
      "source": "osm",
      "osm_id": "relation/11240348",
      "last_verified": "2026-07-20"
    },
    {
      "id": 27,
      "name": "都立汐入公園",
      "category": "park",
      "area": "東京",
      "city": "荒川区",
      "lat": 35.7369,
      "lng": 139.8109,
      "url": "",
      "conditions": {
        "vaccination_cert": null,
        "size_limit": "",
        "fee": ""
      },
      "caution": "",
      "note": "",
      "sns": [],
      "source": "osm",
      "osm_id": "relation/11769725",
      "last_verified": "2026-07-20"
    },
    {
      "id": 28,
      "name": "台場公園",
      "category": "park",
      "area": "東京",
      "city": "港区",
      "lat": 35.6335,
      "lng": 139.7721,
      "url": "",
      "conditions": {
        "vaccination_cert": null,
        "size_limit": "",
        "fee": ""
      },
      "caution": "",
      "note": "",
      "sns": [],
      "source": "osm",
      "osm_id": "relation/12446683",
      "last_verified": "2026-07-20"
    },
    {
      "id": 29,
      "name": "高井戸公園",
      "category": "park",
      "area": "東京",
      "city": "杉並区",
      "lat": 35.6831,
      "lng": 139.6039,
      "url": "",
      "conditions": {
        "vaccination_cert": null,
        "size_limit": "",
        "fee": ""
      },
      "caution": "",
      "note": "",
      "sns": [],
      "source": "osm",
      "osm_id": "relation/12793177",
      "last_verified": "2026-07-20"
    },
    {
      "id": 30,
      "name": "新宿中央公園",
      "category": "park",
      "area": "東京",
      "city": "新宿区",
      "lat": 35.6891,
      "lng": 139.6894,
      "url": "http://www.city.shinjuku.lg.jp/seikatsu/file15_02_00001.html",
      "conditions": {
        "vaccination_cert": null,
        "size_limit": "",
        "fee": ""
      },
      "caution": "",
      "note": "",
      "sns": [],
      "source": "osm",
      "osm_id": "relation/13272644",
      "last_verified": "2026-07-20"
    },
    {
      "id": 31,
      "name": "ベルモント公園",
      "category": "park",
      "area": "東京",
      "city": "足立区",
      "lat": 35.7751,
      "lng": 139.799,
      "url": "",
      "conditions": {
        "vaccination_cert": null,
        "size_limit": "",
        "fee": ""
      },
      "caution": "",
      "note": "",
      "sns": [],
      "source": "osm",
      "osm_id": "relation/14041438",
      "last_verified": "2026-07-20"
    },
    {
      "id": 32,
      "name": "芹ヶ谷公園",
      "category": "park",
      "area": "東京",
      "city": "町田市",
      "lat": 35.5463,
      "lng": 139.4533,
      "url": "",
      "conditions": {
        "vaccination_cert": null,
        "size_limit": "",
        "fee": ""
      },
      "caution": "",
      "note": "",
      "sns": [],
      "source": "osm",
      "osm_id": "relation/14042118",
      "last_verified": "2026-07-20"
    },
    {
      "id": 33,
      "name": "見沼代親水公園",
      "category": "park",
      "area": "東京",
      "city": "足立区",
      "lat": 35.8106,
      "lng": 139.7727,
      "url": "",
      "conditions": {
        "vaccination_cert": null,
        "size_limit": "",
        "fee": ""
      },
      "caution": "",
      "note": "",
      "sns": [],
      "source": "osm",
      "osm_id": "relation/14044338",
      "last_verified": "2026-07-20"
    },
    {
      "id": 34,
      "name": "亀塚公園",
      "category": "park",
      "area": "東京",
      "city": "港区",
      "lat": 35.6432,
      "lng": 139.7408,
      "url": "",
      "conditions": {
        "vaccination_cert": null,
        "size_limit": "",
        "fee": ""
      },
      "caution": "",
      "note": "",
      "sns": [],
      "source": "osm",
      "osm_id": "relation/14100096",
      "last_verified": "2026-07-20"
    },
    {
      "id": 35,
      "name": "都立東伏見公園",
      "category": "park",
      "area": "東京",
      "city": "西東京市",
      "lat": 35.7277,
      "lng": 139.5574,
      "url": "",
      "conditions": {
        "vaccination_cert": null,
        "size_limit": "",
        "fee": ""
      },
      "caution": "",
      "note": "",
      "sns": [],
      "source": "osm",
      "osm_id": "relation/14207370",
      "last_verified": "2026-07-20"
    },
    {
      "id": 36,
      "name": "隅田公園",
      "category": "park",
      "area": "東京",
      "city": "台東区",
      "lat": 35.7155,
      "lng": 139.8042,
      "url": "",
      "conditions": {
        "vaccination_cert": null,
        "size_limit": "",
        "fee": "無料"
      },
      "caution": "",
      "note": "",
      "sns": [],
      "source": "osm",
      "osm_id": "relation/14235095",
      "last_verified": "2026-07-20"
    },
    {
      "id": 37,
      "name": "木場公園",
      "category": "park",
      "area": "東京",
      "city": "江東区",
      "lat": 35.6758,
      "lng": 139.8086,
      "url": "https://www.tokyo-park.or.jp/park/kiba/",
      "conditions": {
        "vaccination_cert": null,
        "size_limit": "",
        "fee": ""
      },
      "caution": "リード必須。フンは持ち帰ってください。",
      "note": "",
      "sns": [],
      "source": "osm",
      "osm_id": "relation/14273608",
      "last_verified": "2026-07-20"
    },
    {
      "id": 38,
      "name": "青海南ふ頭公園",
      "category": "park",
      "area": "東京",
      "city": "江東区",
      "lat": 35.6153,
      "lng": 139.7787,
      "url": "",
      "conditions": {
        "vaccination_cert": null,
        "size_limit": "",
        "fee": ""
      },
      "caution": "",
      "note": "",
      "sns": [],
      "source": "osm",
      "osm_id": "relation/14925596",
      "last_verified": "2026-07-20"
    },
    {
      "id": 39,
      "name": "一之江境川親水公園",
      "category": "park",
      "area": "東京",
      "city": "江戸川区",
      "lat": 35.688,
      "lng": 139.8757,
      "url": "https://www.city.edogawa.tokyo.jp/e066/kuseijoho/gaiyo/shisetsuguide/bunya/koendobutsuen/ichinoe2.html",
      "conditions": {
        "vaccination_cert": null,
        "size_limit": "",
        "fee": ""
      },
      "caution": "",
      "note": "",
      "sns": [],
      "source": "osm",
      "osm_id": "relation/15091384",
      "last_verified": "2026-07-20"
    },
    {
      "id": 40,
      "name": "篠崎公園",
      "category": "park",
      "area": "東京",
      "city": "江戸川区",
      "lat": 35.706,
      "lng": 139.8972,
      "url": "",
      "conditions": {
        "vaccination_cert": null,
        "size_limit": "",
        "fee": ""
      },
      "caution": "",
      "note": "",
      "sns": [],
      "source": "osm",
      "osm_id": "relation/15238351",
      "last_verified": "2026-07-20"
    },
    {
      "id": 41,
      "name": "六仙公園",
      "category": "park",
      "area": "東京",
      "city": "東久留米市",
      "lat": 35.7504,
      "lng": 139.5228,
      "url": "",
      "conditions": {
        "vaccination_cert": null,
        "size_limit": "",
        "fee": ""
      },
      "caution": "",
      "note": "",
      "sns": [],
      "source": "osm",
      "osm_id": "relation/15341472",
      "last_verified": "2026-07-20"
    },
    {
      "id": 42,
      "name": "城南島海浜公園",
      "category": "park",
      "area": "東京",
      "city": "大田区",
      "lat": 35.581,
      "lng": 139.7838,
      "url": "",
      "conditions": {
        "vaccination_cert": null,
        "size_limit": "",
        "fee": ""
      },
      "caution": "",
      "note": "",
      "sns": [],
      "source": "osm",
      "osm_id": "relation/15635330",
      "last_verified": "2026-07-20"
    },
    {
      "id": 43,
      "name": "大森ふるさとの浜辺",
      "category": "park",
      "area": "東京",
      "city": "大田区",
      "lat": 35.5739,
      "lng": 139.7422,
      "url": "",
      "conditions": {
        "vaccination_cert": null,
        "size_limit": "",
        "fee": "無料"
      },
      "caution": "",
      "note": "",
      "sns": [],
      "source": "osm",
      "osm_id": "relation/16475508",
      "last_verified": "2026-07-20"
    },
    {
      "id": 44,
      "name": "東京港野鳥公園",
      "category": "park",
      "area": "東京",
      "city": "大田区",
      "lat": 35.5815,
      "lng": 139.7633,
      "url": "",
      "conditions": {
        "vaccination_cert": null,
        "size_limit": "",
        "fee": "有料"
      },
      "caution": "",
      "note": "",
      "sns": [],
      "source": "osm",
      "osm_id": "relation/16714629",
      "last_verified": "2026-07-20"
    },
    {
      "id": 45,
      "name": "羽根木公園",
      "category": "park",
      "area": "東京",
      "city": "世田谷区",
      "lat": 35.659,
      "lng": 139.6547,
      "url": "https://www.city.setagaya.lg.jp/02075/9123.html",
      "conditions": {
        "vaccination_cert": null,
        "size_limit": "",
        "fee": "無料"
      },
      "caution": "",
      "note": "",
      "sns": [],
      "source": "osm",
      "osm_id": "relation/17337815",
      "last_verified": "2026-07-20"
    },
    {
      "id": 46,
      "name": "墨田錦糸公園",
      "category": "park",
      "area": "東京",
      "city": "墨田区",
      "lat": 35.699,
      "lng": 139.8164,
      "url": "",
      "conditions": {
        "vaccination_cert": null,
        "size_limit": "",
        "fee": ""
      },
      "caution": "",
      "note": "",
      "sns": [],
      "source": "osm",
      "osm_id": "relation/17372671",
      "last_verified": "2026-07-20"
    },
    {
      "id": 47,
      "name": "善福寺川緑地",
      "category": "park",
      "area": "東京",
      "city": "杉並区",
      "lat": 35.6931,
      "lng": 139.6284,
      "url": "https://www.tokyo-park.or.jp/park/zempukujigawa-ryokuchi/",
      "conditions": {
        "vaccination_cert": null,
        "size_limit": "",
        "fee": ""
      },
      "caution": "リード必須。フンは持ち帰ってください。",
      "note": "",
      "sns": [],
      "source": "osm",
      "osm_id": "relation/17376005",
      "last_verified": "2026-07-20"
    },
    {
      "id": 48,
      "name": "善福寺公園",
      "category": "park",
      "area": "東京",
      "city": "杉並区",
      "lat": 35.7148,
      "lng": 139.5903,
      "url": "",
      "conditions": {
        "vaccination_cert": null,
        "size_limit": "",
        "fee": ""
      },
      "caution": "",
      "note": "",
      "sns": [],
      "source": "osm",
      "osm_id": "relation/17376006",
      "last_verified": "2026-07-20"
    },
    {
      "id": 49,
      "name": "外濠公園",
      "category": "park",
      "area": "東京",
      "city": "千代田区",
      "lat": 35.6906,
      "lng": 139.7348,
      "url": "",
      "conditions": {
        "vaccination_cert": null,
        "size_limit": "",
        "fee": "無料"
      },
      "caution": "",
      "note": "",
      "sns": [],
      "source": "osm",
      "osm_id": "relation/17416865",
      "last_verified": "2026-07-20"
    },
    {
      "id": 50,
      "name": "潮風公園",
      "category": "park",
      "area": "東京",
      "city": "品川区",
      "lat": 35.6227,
      "lng": 139.77,
      "url": "",
      "conditions": {
        "vaccination_cert": null,
        "size_limit": "",
        "fee": ""
      },
      "caution": "",
      "note": "",
      "sns": [],
      "source": "osm",
      "osm_id": "relation/17931810",
      "last_verified": "2026-07-20"
    },
    {
      "id": 51,
      "name": "暁ふ頭公園",
      "category": "park",
      "area": "東京",
      "city": "江東区",
      "lat": 35.6084,
      "lng": 139.79,
      "url": "",
      "conditions": {
        "vaccination_cert": null,
        "size_limit": "",
        "fee": ""
      },
      "caution": "",
      "note": "",
      "sns": [],
      "source": "osm",
      "osm_id": "relation/17948180",
      "last_verified": "2026-07-20"
    },
    {
      "id": 52,
      "name": "城北中央公園",
      "category": "park",
      "area": "東京",
      "city": "板橋区",
      "lat": 35.7542,
      "lng": 139.674,
      "url": "",
      "conditions": {
        "vaccination_cert": null,
        "size_limit": "",
        "fee": ""
      },
      "caution": "",
      "note": "",
      "sns": [],
      "source": "osm",
      "osm_id": "relation/17981647",
      "last_verified": "2026-07-20"
    },
    {
      "id": 53,
      "name": "東綾瀬公園",
      "category": "park",
      "area": "東京",
      "city": "足立区",
      "lat": 35.7673,
      "lng": 139.8296,
      "url": "",
      "conditions": {
        "vaccination_cert": null,
        "size_limit": "",
        "fee": ""
      },
      "caution": "",
      "note": "",
      "sns": [],
      "source": "osm",
      "osm_id": "relation/18529180",
      "last_verified": "2026-07-20"
    },
    {
      "id": 54,
      "name": "シンボルプロムナード公園",
      "category": "park",
      "area": "東京",
      "city": "江東区",
      "lat": 35.631,
      "lng": 139.7883,
      "url": "",
      "conditions": {
        "vaccination_cert": null,
        "size_limit": "",
        "fee": ""
      },
      "caution": "",
      "note": "",
      "sns": [],
      "source": "osm",
      "osm_id": "relation/19617540",
      "last_verified": "2026-07-20"
    },
    {
      "id": 55,
      "name": "代々木公園",
      "category": "park",
      "area": "東京",
      "city": "渋谷区",
      "lat": 35.67,
      "lng": 139.6963,
      "url": "https://www.tokyo-park.or.jp/park/format/index039.html",
      "conditions": {
        "vaccination_cert": null,
        "size_limit": "",
        "fee": ""
      },
      "caution": "リード必須。バードサンクチュアリ内は立入禁止です。",
      "note": "",
      "sns": [],
      "source": "osm",
      "osm_id": "relation/19862716",
      "last_verified": "2026-07-20"
    },
    {
      "id": 56,
      "name": "神代植物公園",
      "category": "park",
      "area": "東京",
      "city": "調布市",
      "lat": 35.6693,
      "lng": 139.5509,
      "url": "",
      "conditions": {
        "vaccination_cert": null,
        "size_limit": "",
        "fee": ""
      },
      "caution": "",
      "note": "",
      "sns": [],
      "source": "osm",
      "osm_id": "relation/20434696",
      "last_verified": "2026-07-20"
    },
    {
      "id": 57,
      "name": "石神井公園",
      "category": "park",
      "area": "東京",
      "city": "練馬区",
      "lat": 35.7385,
      "lng": 139.6,
      "url": "https://www.tokyo-park.or.jp/park/format/index006.html",
      "conditions": {
        "vaccination_cert": null,
        "size_limit": "",
        "fee": ""
      },
      "caution": "リード必須。フンは持ち帰ってください。",
      "note": "",
      "sns": [],
      "source": "osm",
      "osm_id": "relation/2658286",
      "last_verified": "2026-07-20"
    },
    {
      "id": 58,
      "name": "国営昭和記念公園",
      "category": "park",
      "area": "東京",
      "city": "立川市",
      "lat": 35.7112,
      "lng": 139.4,
      "url": "https://www.showakinen-koen.jp/",
      "conditions": {
        "vaccination_cert": null,
        "size_limit": "",
        "fee": "有料"
      },
      "caution": "",
      "note": "",
      "sns": [],
      "source": "osm",
      "osm_id": "relation/2797943",
      "last_verified": "2026-07-20"
    },
    {
      "id": 59,
      "name": "東大和公園",
      "category": "park",
      "area": "東京",
      "city": "東大和市",
      "lat": 35.7556,
      "lng": 139.4323,
      "url": "",
      "conditions": {
        "vaccination_cert": null,
        "size_limit": "",
        "fee": ""
      },
      "caution": "",
      "note": "",
      "sns": [],
      "source": "osm",
      "osm_id": "relation/2960042",
      "last_verified": "2026-07-20"
    },
    {
      "id": 60,
      "name": "皇居外苑",
      "category": "park",
      "area": "東京",
      "city": "千代田区",
      "lat": 35.68,
      "lng": 139.758,
      "url": "",
      "conditions": {
        "vaccination_cert": null,
        "size_limit": "",
        "fee": ""
      },
      "caution": "",
      "note": "",
      "sns": [],
      "source": "osm",
      "osm_id": "relation/3551852",
      "last_verified": "2026-07-20"
    },
    {
      "id": 61,
      "name": "亀戸中央公園",
      "category": "park",
      "area": "東京",
      "city": "江東区",
      "lat": 35.7006,
      "lng": 139.8368,
      "url": "",
      "conditions": {
        "vaccination_cert": null,
        "size_limit": "",
        "fee": ""
      },
      "caution": "",
      "note": "",
      "sns": [],
      "source": "osm",
      "osm_id": "relation/3942802",
      "last_verified": "2026-07-20"
    },
    {
      "id": 62,
      "name": "和田堀公園",
      "category": "park",
      "area": "東京",
      "city": "杉並区",
      "lat": 35.6866,
      "lng": 139.6427,
      "url": "https://www.tokyo-park.or.jp/park/wadabori/",
      "conditions": {
        "vaccination_cert": null,
        "size_limit": "",
        "fee": ""
      },
      "caution": "リード必須。フンは持ち帰ってください。",
      "note": "",
      "sns": [],
      "source": "osm",
      "osm_id": "relation/3974046",
      "last_verified": "2026-07-20"
    },
    {
      "id": 63,
      "name": "おとめ山公園",
      "category": "park",
      "area": "東京",
      "city": "新宿区",
      "lat": 35.7182,
      "lng": 139.702,
      "url": "https://www.city.shinjuku.lg.jp/seikatsu/midori02_001013.html",
      "conditions": {
        "vaccination_cert": null,
        "size_limit": "",
        "fee": ""
      },
      "caution": "",
      "note": "",
      "sns": [],
      "source": "osm",
      "osm_id": "relation/4671380",
      "last_verified": "2026-07-20"
    },
    {
      "id": 64,
      "name": "井の頭恩賜公園",
      "category": "park",
      "area": "東京",
      "city": "三鷹市",
      "lat": 35.6989,
      "lng": 139.5778,
      "url": "https://www.kensetsu.metro.tokyo.lg.jp/jimusho/seibuk/inokashira/index.html",
      "conditions": {
        "vaccination_cert": null,
        "size_limit": "",
        "fee": "無料"
      },
      "caution": "",
      "note": "",
      "sns": [],
      "source": "osm",
      "osm_id": "relation/5411501",
      "last_verified": "2026-07-20"
    },
    {
      "id": 65,
      "name": "上野公園",
      "category": "park",
      "area": "東京",
      "city": "台東区",
      "lat": 35.7153,
      "lng": 139.7733,
      "url": "https://www.kensetsu.metro.tokyo.lg.jp/jimusho/toubuk/ueno/index_top.html",
      "conditions": {
        "vaccination_cert": null,
        "size_limit": "",
        "fee": "無料"
      },
      "caution": "",
      "note": "",
      "sns": [],
      "source": "osm",
      "osm_id": "relation/5413419",
      "last_verified": "2026-07-20"
    },
    {
      "id": 66,
      "name": "皇居東御苑",
      "category": "park",
      "area": "東京",
      "city": "千代田区",
      "lat": 35.6865,
      "lng": 139.7572,
      "url": "https://www.kunaicho.go.jp/event/higashigyoen/higashigyoen.html",
      "conditions": {
        "vaccination_cert": null,
        "size_limit": "",
        "fee": "無料"
      },
      "caution": "",
      "note": "",
      "sns": [],
      "source": "osm",
      "osm_id": "relation/5415394",
      "last_verified": "2026-07-20"
    },
    {
      "id": 67,
      "name": "府中の森公園",
      "category": "park",
      "area": "東京",
      "city": "府中市",
      "lat": 35.6767,
      "lng": 139.4923,
      "url": "",
      "conditions": {
        "vaccination_cert": null,
        "size_limit": "",
        "fee": ""
      },
      "caution": "",
      "note": "",
      "sns": [],
      "source": "osm",
      "osm_id": "relation/582240",
      "last_verified": "2026-07-20"
    },
    {
      "id": 68,
      "name": "東京都檜原都民の森",
      "category": "park",
      "area": "東京",
      "city": "檜原村",
      "lat": 35.7369,
      "lng": 139.0233,
      "url": "https://www.hinohara-mori.jp/",
      "conditions": {
        "vaccination_cert": null,
        "size_limit": "",
        "fee": ""
      },
      "caution": "",
      "note": "",
      "sns": [],
      "source": "osm",
      "osm_id": "relation/7707880",
      "last_verified": "2026-07-20"
    },
    {
      "id": 69,
      "name": "築地川公園",
      "category": "park",
      "area": "東京",
      "city": "中央区",
      "lat": 35.6675,
      "lng": 139.7743,
      "url": "",
      "conditions": {
        "vaccination_cert": null,
        "size_limit": "",
        "fee": ""
      },
      "caution": "",
      "note": "",
      "sns": [],
      "source": "osm",
      "osm_id": "relation/7733405",
      "last_verified": "2026-07-20"
    },
    {
      "id": 70,
      "name": "春の風公園",
      "category": "park",
      "area": "東京",
      "city": "練馬区",
      "lat": 35.756,
      "lng": 139.6237,
      "url": "",
      "conditions": {
        "vaccination_cert": null,
        "size_limit": "",
        "fee": ""
      },
      "caution": "",
      "note": "",
      "sns": [],
      "source": "osm",
      "osm_id": "relation/8858905",
      "last_verified": "2026-07-20"
    },
    {
      "id": 71,
      "name": "東村山中央公園",
      "category": "park",
      "area": "東京",
      "city": "東村山市",
      "lat": 35.7475,
      "lng": 139.4592,
      "url": "",
      "conditions": {
        "vaccination_cert": null,
        "size_limit": "",
        "fee": ""
      },
      "caution": "",
      "note": "",
      "sns": [],
      "source": "osm",
      "osm_id": "relation/905357",
      "last_verified": "2026-07-20"
    },
    {
      "id": 72,
      "name": "武蔵野公園",
      "category": "park",
      "area": "東京",
      "city": "府中市",
      "lat": 35.6902,
      "lng": 139.5184,
      "url": "",
      "conditions": {
        "vaccination_cert": null,
        "size_limit": "",
        "fee": ""
      },
      "caution": "",
      "note": "",
      "sns": [],
      "source": "osm",
      "osm_id": "relation/906394",
      "last_verified": "2026-07-20"
    },
    {
      "id": 73,
      "name": "葛西海浜公園",
      "category": "park",
      "area": "東京",
      "city": "江戸川区",
      "lat": 35.6384,
      "lng": 139.8544,
      "url": "",
      "conditions": {
        "vaccination_cert": null,
        "size_limit": "",
        "fee": ""
      },
      "caution": "",
      "note": "",
      "sns": [],
      "source": "osm",
      "osm_id": "relation/9645089",
      "last_verified": "2026-07-20"
    },
    {
      "id": 74,
      "name": "目黒天空庭園",
      "category": "park",
      "area": "東京",
      "city": "目黒区",
      "lat": 35.651,
      "lng": 139.6876,
      "url": "",
      "conditions": {
        "vaccination_cert": null,
        "size_limit": "",
        "fee": ""
      },
      "caution": "",
      "note": "",
      "sns": [],
      "source": "osm",
      "osm_id": "relation/9691941",
      "last_verified": "2026-07-20"
    },
    {
      "id": 75,
      "name": "大田黒公園",
      "category": "park",
      "area": "東京",
      "city": "杉並区",
      "lat": 35.7009,
      "lng": 139.6247,
      "url": "https://www.city.suginami.tokyo.jp/shisetsu/kouen/02/ogikubo/1007133.html",
      "conditions": {
        "vaccination_cert": null,
        "size_limit": "",
        "fee": "無料"
      },
      "caution": "",
      "note": "",
      "sns": [],
      "source": "osm",
      "osm_id": "way/100013319",
      "last_verified": "2026-07-20"
    },
    {
      "id": 76,
      "name": "井草森公園",
      "category": "park",
      "area": "東京",
      "city": "杉並区",
      "lat": 35.7272,
      "lng": 139.6119,
      "url": "",
      "conditions": {
        "vaccination_cert": null,
        "size_limit": "",
        "fee": ""
      },
      "caution": "",
      "note": "",
      "sns": [],
      "source": "osm",
      "osm_id": "way/100225053",
      "last_verified": "2026-07-20"
    },
    {
      "id": 77,
      "name": "大久保公園",
      "category": "park",
      "area": "東京",
      "city": "新宿区",
      "lat": 35.6974,
      "lng": 139.7013,
      "url": "https://www.city.shinjuku.lg.jp/seikatsu/midori02_000105.html",
      "conditions": {
        "vaccination_cert": null,
        "size_limit": "",
        "fee": ""
      },
      "caution": "",
      "note": "",
      "sns": [],
      "source": "osm",
      "osm_id": "way/103280980",
      "last_verified": "2026-07-20"
    },
    {
      "id": 78,
      "name": "都立青山公園 南地区",
      "category": "park",
      "area": "東京",
      "city": "港区",
      "lat": 35.6637,
      "lng": 139.7252,
      "url": "https://www.tokyo-park.or.jp/park/format/index080.html",
      "conditions": {
        "vaccination_cert": null,
        "size_limit": "",
        "fee": ""
      },
      "caution": "",
      "note": "",
      "sns": [],
      "source": "osm",
      "osm_id": "way/103425082",
      "last_verified": "2026-07-20"
    },
    {
      "id": 79,
      "name": "見次公園",
      "category": "park",
      "area": "東京",
      "city": "板橋区",
      "lat": 35.773,
      "lng": 139.6934,
      "url": "",
      "conditions": {
        "vaccination_cert": null,
        "size_limit": "",
        "fee": ""
      },
      "caution": "",
      "note": "",
      "sns": [],
      "source": "osm",
      "osm_id": "way/105746222",
      "last_verified": "2026-07-20"
    },
    {
      "id": 80,
      "name": "荒川四ツ木橋緑地",
      "category": "park",
      "area": "東京",
      "city": "墨田区",
      "lat": 35.7285,
      "lng": 139.8306,
      "url": "",
      "conditions": {
        "vaccination_cert": null,
        "size_limit": "",
        "fee": ""
      },
      "caution": "",
      "note": "",
      "sns": [],
      "source": "osm",
      "osm_id": "way/1057912726",
      "last_verified": "2026-07-20"
    },
    {
      "id": 81,
      "name": "練馬城址公園",
      "category": "park",
      "area": "東京",
      "city": "練馬区",
      "lat": 35.745,
      "lng": 139.6446,
      "url": "",
      "conditions": {
        "vaccination_cert": null,
        "size_limit": "",
        "fee": ""
      },
      "caution": "",
      "note": "",
      "sns": [],
      "source": "osm",
      "osm_id": "way/1058118415",
      "last_verified": "2026-07-20"
    },
    {
      "id": 82,
      "name": "日の出町緑地",
      "category": "park",
      "area": "東京",
      "city": "足立区",
      "lat": 35.7496,
      "lng": 139.8131,
      "url": "",
      "conditions": {
        "vaccination_cert": null,
        "size_limit": "",
        "fee": ""
      },
      "caution": "",
      "note": "",
      "sns": [],
      "source": "osm",
      "osm_id": "way/1058263149",
      "last_verified": "2026-07-20"
    },
    {
      "id": 83,
      "name": "世田谷公園",
      "category": "park",
      "area": "東京",
      "city": "世田谷区",
      "lat": 35.6438,
      "lng": 139.6816,
      "url": "",
      "conditions": {
        "vaccination_cert": null,
        "size_limit": "",
        "fee": ""
      },
      "caution": "",
      "note": "",
      "sns": [],
      "source": "osm",
      "osm_id": "way/107875788",
      "last_verified": "2026-07-20"
    },
    {
      "id": 84,
      "name": "小野路公園",
      "category": "park",
      "area": "東京",
      "city": "町田市",
      "lat": 35.5976,
      "lng": 139.4542,
      "url": "",
      "conditions": {
        "vaccination_cert": null,
        "size_limit": "",
        "fee": ""
      },
      "caution": "",
      "note": "",
      "sns": [],
      "source": "osm",
      "osm_id": "way/1089497922",
      "last_verified": "2026-07-20"
    },
    {
      "id": 85,
      "name": "都立青山公園　北地区",
      "category": "park",
      "area": "東京",
      "city": "港区",
      "lat": 35.6701,
      "lng": 139.7247,
      "url": "",
      "conditions": {
        "vaccination_cert": null,
        "size_limit": "",
        "fee": ""
      },
      "caution": "",
      "note": "",
      "sns": [],
      "source": "osm",
      "osm_id": "way/109684527",
      "last_verified": "2026-07-20"
    },
    {
      "id": 86,
      "name": "青葉公園",
      "category": "park",
      "area": "東京",
      "city": "港区",
      "lat": 35.6706,
      "lng": 139.7246,
      "url": "",
      "conditions": {
        "vaccination_cert": null,
        "size_limit": "",
        "fee": ""
      },
      "caution": "",
      "note": "",
      "sns": [],
      "source": "osm",
      "osm_id": "way/109684528",
      "last_verified": "2026-07-20"
    },
    {
      "id": 87,
      "name": "青海緑道公園",
      "category": "park",
      "area": "東京",
      "city": "江東区",
      "lat": 35.6204,
      "lng": 139.7803,
      "url": "",
      "conditions": {
        "vaccination_cert": null,
        "size_limit": "",
        "fee": ""
      },
      "caution": "",
      "note": "",
      "sns": [],
      "source": "osm",
      "osm_id": "way/1116590463",
      "last_verified": "2026-07-20"
    },
    {
      "id": 88,
      "name": "東八潮緑道公園",
      "category": "park",
      "area": "東京",
      "city": "品川区",
      "lat": 35.6196,
      "lng": 139.7721,
      "url": "",
      "conditions": {
        "vaccination_cert": null,
        "size_limit": "",
        "fee": ""
      },
      "caution": "",
      "note": "",
      "sns": [],
      "source": "osm",
      "osm_id": "way/1116590465",
      "last_verified": "2026-07-20"
    },
    {
      "id": 89,
      "name": "相原中央公園",
      "category": "park",
      "area": "東京",
      "city": "町田市",
      "lat": 35.611,
      "lng": 139.3195,
      "url": "",
      "conditions": {
        "vaccination_cert": null,
        "size_limit": "",
        "fee": ""
      },
      "caution": "",
      "note": "",
      "sns": [],
      "source": "osm",
      "osm_id": "way/1118223608",
      "last_verified": "2026-07-20"
    },
    {
      "id": 90,
      "name": "都立大戸緑地(牛田地区)",
      "category": "park",
      "area": "東京",
      "city": "町田市",
      "lat": 35.615,
      "lng": 139.2844,
      "url": "",
      "conditions": {
        "vaccination_cert": null,
        "size_limit": "",
        "fee": ""
      },
      "caution": "",
      "note": "",
      "sns": [],
      "source": "osm",
      "osm_id": "way/1118551394",
      "last_verified": "2026-07-20"
    },
    {
      "id": 91,
      "name": "都立大戸緑地(段木入地区)",
      "category": "park",
      "area": "東京",
      "city": "町田市",
      "lat": 35.6136,
      "lng": 139.2797,
      "url": "",
      "conditions": {
        "vaccination_cert": null,
        "size_limit": "",
        "fee": ""
      },
      "caution": "",
      "note": "",
      "sns": [],
      "source": "osm",
      "osm_id": "way/1118551397",
      "last_verified": "2026-07-20"
    },
    {
      "id": 92,
      "name": "都立大戸緑地(段木入地区)",
      "category": "park",
      "area": "東京",
      "city": "町田市",
      "lat": 35.6171,
      "lng": 139.2787,
      "url": "",
      "conditions": {
        "vaccination_cert": null,
        "size_limit": "",
        "fee": ""
      },
      "caution": "",
      "note": "",
      "sns": [],
      "source": "osm",
      "osm_id": "way/1118551398",
      "last_verified": "2026-07-20"
    },
    {
      "id": 93,
      "name": "都立小山田緑地 山中分園",
      "category": "park",
      "area": "東京",
      "city": "町田市",
      "lat": 35.6088,
      "lng": 139.4099,
      "url": "",
      "conditions": {
        "vaccination_cert": null,
        "size_limit": "",
        "fee": ""
      },
      "caution": "",
      "note": "",
      "sns": [],
      "source": "osm",
      "osm_id": "way/1118558908",
      "last_verified": "2026-07-20"
    },
    {
      "id": 94,
      "name": "兵庫島公園",
      "category": "park",
      "area": "東京",
      "city": "世田谷区",
      "lat": 35.6124,
      "lng": 139.6229,
      "url": "http://www.city.setagaya.tokyo.jp/030/d00004246.html",
      "conditions": {
        "vaccination_cert": null,
        "size_limit": "",
        "fee": ""
      },
      "caution": "",
      "note": "",
      "sns": [],
      "source": "osm",
      "osm_id": "way/1128004532",
      "last_verified": "2026-07-20",
      "link_broken": true
    },
    {
      "id": 95,
      "name": "竹と親しむ広場",
      "category": "park",
      "area": "東京",
      "city": "江戸川区",
      "lat": 35.7026,
      "lng": 139.9063,
      "url": "",
      "conditions": {
        "vaccination_cert": null,
        "size_limit": "",
        "fee": ""
      },
      "caution": "",
      "note": "",
      "sns": [],
      "source": "osm",
      "osm_id": "way/1130645089",
      "last_verified": "2026-07-20"
    },
    {
      "id": 96,
      "name": "宮下公園",
      "category": "park",
      "area": "東京",
      "city": "渋谷区",
      "lat": 35.6619,
      "lng": 139.7018,
      "url": "",
      "conditions": {
        "vaccination_cert": null,
        "size_limit": "",
        "fee": ""
      },
      "caution": "",
      "note": "",
      "sns": [],
      "source": "osm",
      "osm_id": "way/116806278",
      "last_verified": "2026-07-20"
    },
    {
      "id": 97,
      "name": "名主の滝公園",
      "category": "park",
      "area": "東京",
      "city": "北区",
      "lat": 35.7574,
      "lng": 139.7325,
      "url": "",
      "conditions": {
        "vaccination_cert": null,
        "size_limit": "",
        "fee": ""
      },
      "caution": "",
      "note": "",
      "sns": [],
      "source": "osm",
      "osm_id": "way/118268900",
      "last_verified": "2026-07-20"
    },
    {
      "id": 98,
      "name": "稲城中央公園",
      "category": "park",
      "area": "東京",
      "city": "稲城市",
      "lat": 35.6336,
      "lng": 139.4877,
      "url": "",
      "conditions": {
        "vaccination_cert": null,
        "size_limit": "",
        "fee": ""
      },
      "caution": "",
      "note": "",
      "sns": [],
      "source": "osm",
      "osm_id": "way/120060828",
      "last_verified": "2026-07-20"
    },
    {
      "id": 99,
      "name": "鶴間公園",
      "category": "park",
      "area": "東京",
      "city": "町田市",
      "lat": 35.5098,
      "lng": 139.4678,
      "url": "",
      "conditions": {
        "vaccination_cert": null,
        "size_limit": "",
        "fee": ""
      },
      "caution": "",
      "note": "",
      "sns": [],
      "source": "osm",
      "osm_id": "way/124815411",
      "last_verified": "2026-07-20"
    },
    {
      "id": 100,
      "name": "万葉公園",
      "category": "park",
      "area": "東京",
      "city": "八王子市",
      "lat": 35.647,
      "lng": 139.3048,
      "url": "",
      "conditions": {
        "vaccination_cert": null,
        "size_limit": "",
        "fee": ""
      },
      "caution": "",
      "note": "",
      "sns": [],
      "source": "osm",
      "osm_id": "way/125776614",
      "last_verified": "2026-07-20"
    },
    {
      "id": 101,
      "name": "一の橋公園",
      "category": "park",
      "area": "東京",
      "city": "港区",
      "lat": 35.6557,
      "lng": 139.7379,
      "url": "",
      "conditions": {
        "vaccination_cert": null,
        "size_limit": "",
        "fee": ""
      },
      "caution": "",
      "note": "",
      "sns": [],
      "source": "osm",
      "osm_id": "way/1282822210",
      "last_verified": "2026-07-20"
    },
    {
      "id": 102,
      "name": "都立狭山公園",
      "category": "park",
      "area": "東京",
      "city": "東大和市",
      "lat": 35.7583,
      "lng": 139.4396,
      "url": "",
      "conditions": {
        "vaccination_cert": null,
        "size_limit": "",
        "fee": ""
      },
      "caution": "",
      "note": "",
      "sns": [],
      "source": "osm",
      "osm_id": "way/1303833115",
      "last_verified": "2026-07-20"
    },
    {
      "id": 103,
      "name": "天沼もえぎ公園",
      "category": "park",
      "area": "東京",
      "city": "杉並区",
      "lat": 35.7073,
      "lng": 139.6222,
      "url": "",
      "conditions": {
        "vaccination_cert": null,
        "size_limit": "",
        "fee": ""
      },
      "caution": "",
      "note": "",
      "sns": [],
      "source": "osm",
      "osm_id": "way/130920749",
      "last_verified": "2026-07-20"
    },
    {
      "id": 104,
      "name": "天沼弁天池公園",
      "category": "park",
      "area": "東京",
      "city": "杉並区",
      "lat": 35.7085,
      "lng": 139.6215,
      "url": "",
      "conditions": {
        "vaccination_cert": null,
        "size_limit": "",
        "fee": ""
      },
      "caution": "",
      "note": "",
      "sns": [],
      "source": "osm",
      "osm_id": "way/130923279",
      "last_verified": "2026-07-20"
    },
    {
      "id": 105,
      "name": "プリンスの丘公園",
      "category": "park",
      "area": "東京",
      "city": "武蔵村山市",
      "lat": 35.7432,
      "lng": 139.3877,
      "url": "",
      "conditions": {
        "vaccination_cert": null,
        "size_limit": "",
        "fee": ""
      },
      "caution": "",
      "note": "",
      "sns": [],
      "source": "osm",
      "osm_id": "way/131190534",
      "last_verified": "2026-07-20"
    },
    {
      "id": 106,
      "name": "東郷公園",
      "category": "park",
      "area": "東京",
      "city": "千代田区",
      "lat": 35.6904,
      "lng": 139.7401,
      "url": "",
      "conditions": {
        "vaccination_cert": null,
        "size_limit": "",
        "fee": ""
      },
      "caution": "",
      "note": "",
      "sns": [],
      "source": "osm",
      "osm_id": "way/132794875",
      "last_verified": "2026-07-20"
    },
    {
      "id": 107,
      "name": "秋留台公園",
      "category": "park",
      "area": "東京",
      "city": "あきる野市",
      "lat": 35.7303,
      "lng": 139.2999,
      "url": "",
      "conditions": {
        "vaccination_cert": null,
        "size_limit": "",
        "fee": ""
      },
      "caution": "",
      "note": "",
      "sns": [],
      "source": "osm",
      "osm_id": "way/134301294",
      "last_verified": "2026-07-20"
    },
    {
      "id": 108,
      "name": "中川公園",
      "category": "park",
      "area": "東京",
      "city": "足立区",
      "lat": 35.7755,
      "lng": 139.8468,
      "url": "",
      "conditions": {
        "vaccination_cert": null,
        "size_limit": "",
        "fee": ""
      },
      "caution": "",
      "note": "",
      "sns": [],
      "source": "osm",
      "osm_id": "way/134796979",
      "last_verified": "2026-07-20"
    },
    {
      "id": 109,
      "name": "しながわ中央公園",
      "category": "park",
      "area": "東京",
      "city": "品川区",
      "lat": 35.6096,
      "lng": 139.7282,
      "url": "",
      "conditions": {
        "vaccination_cert": null,
        "size_limit": "",
        "fee": ""
      },
      "caution": "",
      "note": "",
      "sns": [],
      "source": "osm",
      "osm_id": "way/135154427",
      "last_verified": "2026-07-20"
    },
    {
      "id": 110,
      "name": "八芳園",
      "category": "park",
      "area": "東京",
      "city": "港区",
      "lat": 35.6386,
      "lng": 139.7296,
      "url": "https://www.happo-en.com/",
      "conditions": {
        "vaccination_cert": null,
        "size_limit": "",
        "fee": ""
      },
      "caution": "",
      "note": "",
      "sns": [],
      "source": "osm",
      "osm_id": "way/1375876141",
      "last_verified": "2026-07-20"
    },
    {
      "id": 111,
      "name": "渋谷区立北谷公園",
      "category": "park",
      "area": "東京",
      "city": "渋谷区",
      "lat": 35.6641,
      "lng": 139.6996,
      "url": "https://shibuya-kitaya-park.tokyo",
      "conditions": {
        "vaccination_cert": null,
        "size_limit": "",
        "fee": ""
      },
      "caution": "リード必須。植栽帯への立入は禁止です。",
      "note": "",
      "sns": [],
      "source": "osm",
      "osm_id": "way/138576906",
      "last_verified": "2026-07-20"
    },
    {
      "id": 112,
      "name": "日比谷公園",
      "category": "park",
      "area": "東京",
      "city": "千代田区",
      "lat": 35.6737,
      "lng": 139.7562,
      "url": "",
      "conditions": {
        "vaccination_cert": null,
        "size_limit": "",
        "fee": ""
      },
      "caution": "",
      "note": "",
      "sns": [],
      "source": "osm",
      "osm_id": "way/145408909",
      "last_verified": "2026-07-20"
    },
    {
      "id": 113,
      "name": "哲学堂公園",
      "category": "park",
      "area": "東京",
      "city": "中野区",
      "lat": 35.7221,
      "lng": 139.674,
      "url": "",
      "conditions": {
        "vaccination_cert": null,
        "size_limit": "",
        "fee": ""
      },
      "caution": "",
      "note": "",
      "sns": [],
      "source": "osm",
      "osm_id": "way/145524218",
      "last_verified": "2026-07-20"
    },
    {
      "id": 114,
      "name": "池田山公園",
      "category": "park",
      "area": "東京",
      "city": "品川区",
      "lat": 35.6323,
      "lng": 139.7235,
      "url": "",
      "conditions": {
        "vaccination_cert": null,
        "size_limit": "",
        "fee": ""
      },
      "caution": "",
      "note": "",
      "sns": [],
      "source": "osm",
      "osm_id": "way/147617674",
      "last_verified": "2026-07-20"
    },
    {
      "id": 115,
      "name": "東原公園",
      "category": "park",
      "area": "東京",
      "city": "青梅市",
      "lat": 35.7939,
      "lng": 139.3017,
      "url": "",
      "conditions": {
        "vaccination_cert": null,
        "size_limit": "",
        "fee": ""
      },
      "caution": "",
      "note": "",
      "sns": [],
      "source": "osm",
      "osm_id": "way/148088592",
      "last_verified": "2026-07-20"
    },
    {
      "id": 116,
      "name": "長沼公園",
      "category": "park",
      "area": "東京",
      "city": "八王子市",
      "lat": 35.6379,
      "lng": 139.3692,
      "url": "",
      "conditions": {
        "vaccination_cert": null,
        "size_limit": "",
        "fee": ""
      },
      "caution": "",
      "note": "",
      "sns": [],
      "source": "osm",
      "osm_id": "way/1498425530",
      "last_verified": "2026-07-20"
    },
    {
      "id": 117,
      "name": "狭山池公園",
      "category": "park",
      "area": "東京",
      "city": "瑞穂町",
      "lat": 35.7763,
      "lng": 139.3483,
      "url": "",
      "conditions": {
        "vaccination_cert": null,
        "size_limit": "",
        "fee": ""
      },
      "caution": "",
      "note": "",
      "sns": [],
      "source": "osm",
      "osm_id": "way/150382683",
      "last_verified": "2026-07-20"
    },
    {
      "id": 118,
      "name": "落合中央公園",
      "category": "park",
      "area": "東京",
      "city": "新宿区",
      "lat": 35.7126,
      "lng": 139.6932,
      "url": "",
      "conditions": {
        "vaccination_cert": null,
        "size_limit": "",
        "fee": ""
      },
      "caution": "",
      "note": "",
      "sns": [],
      "source": "osm",
      "osm_id": "way/150773380",
      "last_verified": "2026-07-20"
    },
    {
      "id": 119,
      "name": "浮間公園",
      "category": "park",
      "area": "東京",
      "city": "板橋区",
      "lat": 35.7938,
      "lng": 139.6932,
      "url": "",
      "conditions": {
        "vaccination_cert": null,
        "size_limit": "",
        "fee": ""
      },
      "caution": "",
      "note": "",
      "sns": [],
      "source": "osm",
      "osm_id": "way/151191425",
      "last_verified": "2026-07-20"
    },
    {
      "id": 120,
      "name": "南桜公園",
      "category": "park",
      "area": "東京",
      "city": "港区",
      "lat": 35.6663,
      "lng": 139.7527,
      "url": "",
      "conditions": {
        "vaccination_cert": null,
        "size_limit": "",
        "fee": ""
      },
      "caution": "",
      "note": "",
      "sns": [],
      "source": "osm",
      "osm_id": "way/151332916",
      "last_verified": "2026-07-20"
    },
    {
      "id": 121,
      "name": "青梅市交通公園",
      "category": "park",
      "area": "東京",
      "city": "青梅市",
      "lat": 35.7941,
      "lng": 139.2955,
      "url": "",
      "conditions": {
        "vaccination_cert": null,
        "size_limit": "",
        "fee": ""
      },
      "caution": "",
      "note": "",
      "sns": [],
      "source": "osm",
      "osm_id": "way/154686627",
      "last_verified": "2026-07-20"
    },
    {
      "id": 122,
      "name": "都立夢の島公園",
      "category": "park",
      "area": "東京",
      "city": "江東区",
      "lat": 35.6511,
      "lng": 139.8279,
      "url": "",
      "conditions": {
        "vaccination_cert": null,
        "size_limit": "",
        "fee": ""
      },
      "caution": "",
      "note": "",
      "sns": [],
      "source": "osm",
      "osm_id": "way/155164275",
      "last_verified": "2026-07-20"
    },
    {
      "id": 123,
      "name": "南池袋公園",
      "category": "park",
      "area": "東京",
      "city": "豊島区",
      "lat": 35.7275,
      "lng": 139.7144,
      "url": "",
      "conditions": {
        "vaccination_cert": null,
        "size_limit": "",
        "fee": ""
      },
      "caution": "",
      "note": "",
      "sns": [],
      "source": "osm",
      "osm_id": "way/155289523",
      "last_verified": "2026-07-20"
    },
    {
      "id": 124,
      "name": "都立横網町公園",
      "category": "park",
      "area": "東京",
      "city": "墨田区",
      "lat": 35.6994,
      "lng": 139.7961,
      "url": "",
      "conditions": {
        "vaccination_cert": null,
        "size_limit": "",
        "fee": ""
      },
      "caution": "",
      "note": "",
      "sns": [],
      "source": "osm",
      "osm_id": "way/157050777",
      "last_verified": "2026-07-20"
    },
    {
      "id": 125,
      "name": "浜町公園",
      "category": "park",
      "area": "東京",
      "city": "中央区",
      "lat": 35.6883,
      "lng": 139.7889,
      "url": "",
      "conditions": {
        "vaccination_cert": null,
        "size_limit": "",
        "fee": ""
      },
      "caution": "",
      "note": "",
      "sns": [],
      "source": "osm",
      "osm_id": "way/157214547",
      "last_verified": "2026-07-20"
    },
    {
      "id": 126,
      "name": "参宮橋公園",
      "category": "park",
      "area": "東京",
      "city": "渋谷区",
      "lat": 35.679,
      "lng": 139.6928,
      "url": "",
      "conditions": {
        "vaccination_cert": null,
        "size_limit": "",
        "fee": ""
      },
      "caution": "",
      "note": "",
      "sns": [],
      "source": "osm",
      "osm_id": "way/157415926",
      "last_verified": "2026-07-20"
    },
    {
      "id": 127,
      "name": "新宿御苑",
      "category": "park",
      "area": "東京",
      "city": "新宿区",
      "lat": 35.6851,
      "lng": 139.7099,
      "url": "http://www.env.go.jp/garden/shinjukugyoen/",
      "conditions": {
        "vaccination_cert": null,
        "size_limit": "",
        "fee": "有料"
      },
      "caution": "",
      "note": "",
      "sns": [],
      "source": "osm",
      "osm_id": "way/15772074",
      "last_verified": "2026-07-20"
    },
    {
      "id": 128,
      "name": "カネボウ公園",
      "category": "park",
      "area": "東京",
      "city": "墨田区",
      "lat": 35.7399,
      "lng": 139.8183,
      "url": "",
      "conditions": {
        "vaccination_cert": null,
        "size_limit": "",
        "fee": ""
      },
      "caution": "",
      "note": "",
      "sns": [],
      "source": "osm",
      "osm_id": "way/157812657",
      "last_verified": "2026-07-20"
    },
    {
      "id": 129,
      "name": "与謝野公園",
      "category": "park",
      "area": "東京",
      "city": "杉並区",
      "lat": 35.699,
      "lng": 139.6156,
      "url": "",
      "conditions": {
        "vaccination_cert": null,
        "size_limit": "",
        "fee": ""
      },
      "caution": "",
      "note": "",
      "sns": [],
      "source": "osm",
      "osm_id": "way/159430014",
      "last_verified": "2026-07-20"
    },
    {
      "id": 130,
      "name": "三田台公園",
      "category": "park",
      "area": "東京",
      "city": "港区",
      "lat": 35.6424,
      "lng": 139.7398,
      "url": "",
      "conditions": {
        "vaccination_cert": null,
        "size_limit": "",
        "fee": ""
      },
      "caution": "",
      "note": "",
      "sns": [],
      "source": "osm",
      "osm_id": "way/160703991",
      "last_verified": "2026-07-20"
    },
    {
      "id": 131,
      "name": "本郷給水所公苑",
      "category": "park",
      "area": "東京",
      "city": "文京区",
      "lat": 35.7035,
      "lng": 139.7598,
      "url": "https://www.city.bunkyo.lg.jp/bosai/midori/kuritukouen/kouen/hongoukyuusuijyokouen.html",
      "conditions": {
        "vaccination_cert": null,
        "size_limit": "",
        "fee": ""
      },
      "caution": "",
      "note": "",
      "sns": [],
      "source": "osm",
      "osm_id": "way/161271086",
      "last_verified": "2026-07-20"
    },
    {
      "id": 132,
      "name": "西日暮里公園",
      "category": "park",
      "area": "東京",
      "city": "荒川区",
      "lat": 35.7315,
      "lng": 139.7665,
      "url": "",
      "conditions": {
        "vaccination_cert": null,
        "size_limit": "",
        "fee": ""
      },
      "caution": "",
      "note": "",
      "sns": [],
      "source": "osm",
      "osm_id": "way/162043806",
      "last_verified": "2026-07-20"
    },
    {
      "id": 133,
      "name": "城北公園",
      "category": "park",
      "area": "東京",
      "city": "板橋区",
      "lat": 35.7832,
      "lng": 139.6819,
      "url": "",
      "conditions": {
        "vaccination_cert": null,
        "size_limit": "",
        "fee": ""
      },
      "caution": "",
      "note": "",
      "sns": [],
      "source": "osm",
      "osm_id": "way/162243162",
      "last_verified": "2026-07-20"
    },
    {
      "id": 134,
      "name": "染井吉野桜記念公園",
      "category": "park",
      "area": "東京",
      "city": "豊島区",
      "lat": 35.7369,
      "lng": 139.7469,
      "url": "",
      "conditions": {
        "vaccination_cert": null,
        "size_limit": "",
        "fee": ""
      },
      "caution": "",
      "note": "",
      "sns": [],
      "source": "osm",
      "osm_id": "way/162567679",
      "last_verified": "2026-07-20"
    },
    {
      "id": 135,
      "name": "しながわ区民公園",
      "category": "park",
      "area": "東京",
      "city": "品川区",
      "lat": 35.5921,
      "lng": 139.7394,
      "url": "",
      "conditions": {
        "vaccination_cert": null,
        "size_limit": "",
        "fee": ""
      },
      "caution": "",
      "note": "",
      "sns": [],
      "source": "osm",
      "osm_id": "way/162931821",
      "last_verified": "2026-07-20"
    },
    {
      "id": 136,
      "name": "武蔵野の森公園",
      "category": "park",
      "area": "東京",
      "city": "調布市",
      "lat": 35.6711,
      "lng": 139.528,
      "url": "",
      "conditions": {
        "vaccination_cert": null,
        "size_limit": "",
        "fee": ""
      },
      "caution": "",
      "note": "",
      "sns": [],
      "source": "osm",
      "osm_id": "way/163799829",
      "last_verified": "2026-07-20"
    },
    {
      "id": 137,
      "name": "東大和南公園",
      "category": "park",
      "area": "東京",
      "city": "東大和市",
      "lat": 35.7345,
      "lng": 139.4229,
      "url": "https://www.tokyo-park.or.jp/park/higashiyamato-minami/",
      "conditions": {
        "vaccination_cert": null,
        "size_limit": "",
        "fee": ""
      },
      "caution": "リード必須。フンは持ち帰ってください。",
      "note": "",
      "sns": [],
      "source": "osm",
      "osm_id": "way/165197251",
      "last_verified": "2026-07-20"
    },
    {
      "id": 138,
      "name": "武蔵関公園",
      "category": "park",
      "area": "東京",
      "city": "練馬区",
      "lat": 35.7265,
      "lng": 139.568,
      "url": "",
      "conditions": {
        "vaccination_cert": null,
        "size_limit": "",
        "fee": ""
      },
      "caution": "",
      "note": "",
      "sns": [],
      "source": "osm",
      "osm_id": "way/169454585",
      "last_verified": "2026-07-20"
    },
    {
      "id": 139,
      "name": "戸越公園",
      "category": "park",
      "area": "東京",
      "city": "品川区",
      "lat": 35.6104,
      "lng": 139.7217,
      "url": "",
      "conditions": {
        "vaccination_cert": null,
        "size_limit": "",
        "fee": ""
      },
      "caution": "",
      "note": "",
      "sns": [],
      "source": "osm",
      "osm_id": "way/169889988",
      "last_verified": "2026-07-20"
    },
    {
      "id": 140,
      "name": "大塚公園",
      "category": "park",
      "area": "東京",
      "city": "文京区",
      "lat": 35.724,
      "lng": 139.7318,
      "url": "https://www.city.bunkyo.lg.jp/bosai/midori/kuritukouen/kouen/otsuka.html",
      "conditions": {
        "vaccination_cert": null,
        "size_limit": "",
        "fee": ""
      },
      "caution": "",
      "note": "",
      "sns": [],
      "source": "osm",
      "osm_id": "way/170294476",
      "last_verified": "2026-07-20"
    },
    {
      "id": 141,
      "name": "林試の森公園",
      "category": "park",
      "area": "東京",
      "city": "目黒区",
      "lat": 35.6254,
      "lng": 139.7032,
      "url": "",
      "conditions": {
        "vaccination_cert": null,
        "size_limit": "",
        "fee": ""
      },
      "caution": "",
      "note": "",
      "sns": [],
      "source": "osm",
      "osm_id": "way/170295471",
      "last_verified": "2026-07-20"
    },
    {
      "id": 142,
      "name": "深川公園",
      "category": "park",
      "area": "東京",
      "city": "江東区",
      "lat": 35.6728,
      "lng": 139.7974,
      "url": "",
      "conditions": {
        "vaccination_cert": null,
        "size_limit": "",
        "fee": ""
      },
      "caution": "",
      "note": "",
      "sns": [],
      "source": "osm",
      "osm_id": "way/172364202",
      "last_verified": "2026-07-20"
    },
    {
      "id": 143,
      "name": "小平中央公園",
      "category": "park",
      "area": "東京",
      "city": "小平市",
      "lat": 35.7231,
      "lng": 139.4625,
      "url": "",
      "conditions": {
        "vaccination_cert": null,
        "size_limit": "",
        "fee": ""
      },
      "caution": "",
      "note": "",
      "sns": [],
      "source": "osm",
      "osm_id": "way/176436692",
      "last_verified": "2026-07-20"
    },
    {
      "id": 144,
      "name": "田端台公園",
      "category": "park",
      "area": "東京",
      "city": "北区",
      "lat": 35.7347,
      "lng": 139.7639,
      "url": "",
      "conditions": {
        "vaccination_cert": null,
        "size_limit": "",
        "fee": ""
      },
      "caution": "",
      "note": "",
      "sns": [],
      "source": "osm",
      "osm_id": "way/176649941",
      "last_verified": "2026-07-20"
    },
    {
      "id": 145,
      "name": "代々木大山公園",
      "category": "park",
      "area": "東京",
      "city": "渋谷区",
      "lat": 35.6718,
      "lng": 139.6756,
      "url": "",
      "conditions": {
        "vaccination_cert": null,
        "size_limit": "",
        "fee": ""
      },
      "caution": "",
      "note": "",
      "sns": [],
      "source": "osm",
      "osm_id": "way/178446439",
      "last_verified": "2026-07-20"
    },
    {
      "id": 146,
      "name": "越前堀児童公園",
      "category": "park",
      "area": "東京",
      "city": "中央区",
      "lat": 35.6764,
      "lng": 139.7824,
      "url": "",
      "conditions": {
        "vaccination_cert": null,
        "size_limit": "",
        "fee": ""
      },
      "caution": "",
      "note": "",
      "sns": [],
      "source": "osm",
      "osm_id": "way/178898389",
      "last_verified": "2026-07-20"
    },
    {
      "id": 147,
      "name": "元渕江公園",
      "category": "park",
      "area": "東京",
      "city": "足立区",
      "lat": 35.7926,
      "lng": 139.8063,
      "url": "https://www.seibutuen.jp/motofuchiepark.html",
      "conditions": {
        "vaccination_cert": null,
        "size_limit": "",
        "fee": ""
      },
      "caution": "ペットの放し飼いは禁止。リード装着必須です。",
      "note": "",
      "sns": [],
      "source": "osm",
      "osm_id": "way/183398106",
      "last_verified": "2026-07-20"
    },
    {
      "id": 148,
      "name": "錦華公園",
      "category": "park",
      "area": "東京",
      "city": "千代田区",
      "lat": 35.6977,
      "lng": 139.7605,
      "url": "",
      "conditions": {
        "vaccination_cert": null,
        "size_limit": "",
        "fee": ""
      },
      "caution": "",
      "note": "",
      "sns": [],
      "source": "osm",
      "osm_id": "way/184577229",
      "last_verified": "2026-07-20"
    },
    {
      "id": 149,
      "name": "尾久の原公園",
      "category": "park",
      "area": "東京",
      "city": "荒川区",
      "lat": 35.7513,
      "lng": 139.777,
      "url": "",
      "conditions": {
        "vaccination_cert": null,
        "size_limit": "",
        "fee": ""
      },
      "caution": "",
      "note": "",
      "sns": [],
      "source": "osm",
      "osm_id": "way/185258164",
      "last_verified": "2026-07-20"
    },
    {
      "id": 150,
      "name": "千住スポーツ公園",
      "category": "park",
      "area": "東京",
      "city": "足立区",
      "lat": 35.7445,
      "lng": 139.795,
      "url": "",
      "conditions": {
        "vaccination_cert": null,
        "size_limit": "",
        "fee": ""
      },
      "caution": "",
      "note": "",
      "sns": [],
      "source": "osm",
      "osm_id": "way/185584242",
      "last_verified": "2026-07-20"
    },
    {
      "id": 151,
      "name": "中目黒公園",
      "category": "park",
      "area": "東京",
      "city": "目黒区",
      "lat": 35.6408,
      "lng": 139.7053,
      "url": "",
      "conditions": {
        "vaccination_cert": null,
        "size_limit": "",
        "fee": ""
      },
      "caution": "",
      "note": "",
      "sns": [],
      "source": "osm",
      "osm_id": "way/186794806",
      "last_verified": "2026-07-20"
    },
    {
      "id": 152,
      "name": "関根文化公園",
      "category": "park",
      "area": "東京",
      "city": "杉並区",
      "lat": 35.7088,
      "lng": 139.605,
      "url": "",
      "conditions": {
        "vaccination_cert": null,
        "size_limit": "",
        "fee": ""
      },
      "caution": "",
      "note": "",
      "sns": [],
      "source": "osm",
      "osm_id": "way/188272766",
      "last_verified": "2026-07-20"
    },
    {
      "id": 153,
      "name": "清水池公園",
      "category": "park",
      "area": "東京",
      "city": "目黒区",
      "lat": 35.6241,
      "lng": 139.6924,
      "url": "",
      "conditions": {
        "vaccination_cert": null,
        "size_limit": "",
        "fee": ""
      },
      "caution": "",
      "note": "",
      "sns": [],
      "source": "osm",
      "osm_id": "way/191019668",
      "last_verified": "2026-07-20"
    },
    {
      "id": 154,
      "name": "碑文谷公園",
      "category": "park",
      "area": "東京",
      "city": "目黒区",
      "lat": 35.6258,
      "lng": 139.6823,
      "url": "",
      "conditions": {
        "vaccination_cert": null,
        "size_limit": "",
        "fee": ""
      },
      "caution": "",
      "note": "",
      "sns": [],
      "source": "osm",
      "osm_id": "way/191020434",
      "last_verified": "2026-07-20"
    },
    {
      "id": 155,
      "name": "町田市立 野津田公園",
      "category": "park",
      "area": "東京",
      "city": "町田市",
      "lat": 35.5928,
      "lng": 139.4418,
      "url": "",
      "conditions": {
        "vaccination_cert": null,
        "size_limit": "",
        "fee": ""
      },
      "caution": "",
      "note": "",
      "sns": [],
      "source": "osm",
      "osm_id": "way/194623390",
      "last_verified": "2026-07-20"
    },
    {
      "id": 156,
      "name": "青戸平和公園",
      "category": "park",
      "area": "東京",
      "city": "葛飾区",
      "lat": 35.7495,
      "lng": 139.8518,
      "url": "",
      "conditions": {
        "vaccination_cert": null,
        "size_limit": "",
        "fee": ""
      },
      "caution": "",
      "note": "",
      "sns": [],
      "source": "osm",
      "osm_id": "way/195458305",
      "last_verified": "2026-07-20"
    },
    {
      "id": 157,
      "name": "新宿交通公園",
      "category": "park",
      "area": "東京",
      "city": "葛飾区",
      "lat": 35.7604,
      "lng": 139.8647,
      "url": "",
      "conditions": {
        "vaccination_cert": null,
        "size_limit": "",
        "fee": ""
      },
      "caution": "",
      "note": "",
      "sns": [],
      "source": "osm",
      "osm_id": "way/195500347",
      "last_verified": "2026-07-20"
    },
    {
      "id": 158,
      "name": "都立小山田緑地",
      "category": "park",
      "area": "東京",
      "city": "町田市",
      "lat": 35.5959,
      "lng": 139.417,
      "url": "",
      "conditions": {
        "vaccination_cert": null,
        "size_limit": "",
        "fee": ""
      },
      "caution": "",
      "note": "",
      "sns": [],
      "source": "osm",
      "osm_id": "way/197641985",
      "last_verified": "2026-07-20"
    },
    {
      "id": 159,
      "name": "西郷山公園",
      "category": "park",
      "area": "東京",
      "city": "目黒区",
      "lat": 35.6504,
      "lng": 139.6959,
      "url": "",
      "conditions": {
        "vaccination_cert": null,
        "size_limit": "",
        "fee": ""
      },
      "caution": "",
      "note": "",
      "sns": [],
      "source": "osm",
      "osm_id": "way/199771681",
      "last_verified": "2026-07-20"
    },
    {
      "id": 161,
      "name": "落合公園",
      "category": "park",
      "area": "東京",
      "city": "新宿区",
      "lat": 35.715,
      "lng": 139.6801,
      "url": "https://www.city.shinjuku.lg.jp/seikatsu/midori01_002107.html",
      "conditions": {
        "vaccination_cert": null,
        "size_limit": "",
        "fee": ""
      },
      "caution": "",
      "note": "",
      "sns": [],
      "source": "osm",
      "osm_id": "way/200745592",
      "last_verified": "2026-07-20"
    },
    {
      "id": 162,
      "name": "神宮前公園",
      "category": "park",
      "area": "東京",
      "city": "渋谷区",
      "lat": 35.6735,
      "lng": 139.7139,
      "url": "",
      "conditions": {
        "vaccination_cert": null,
        "size_limit": "",
        "fee": ""
      },
      "caution": "",
      "note": "",
      "sns": [],
      "source": "osm",
      "osm_id": "way/209694997",
      "last_verified": "2026-07-20"
    },
    {
      "id": 163,
      "name": "代々木ポニー公園",
      "category": "park",
      "area": "東京",
      "city": "渋谷区",
      "lat": 35.6786,
      "lng": 139.695,
      "url": "",
      "conditions": {
        "vaccination_cert": null,
        "size_limit": "",
        "fee": ""
      },
      "caution": "",
      "note": "",
      "sns": [],
      "source": "osm",
      "osm_id": "way/209695342",
      "last_verified": "2026-07-20"
    },
    {
      "id": 164,
      "name": "はるのおがわコミュニティパーク",
      "category": "park",
      "area": "東京",
      "city": "渋谷区",
      "lat": 35.6717,
      "lng": 139.6909,
      "url": "",
      "conditions": {
        "vaccination_cert": null,
        "size_limit": "",
        "fee": ""
      },
      "caution": "",
      "note": "",
      "sns": [],
      "source": "osm",
      "osm_id": "way/209700263",
      "last_verified": "2026-07-20"
    },
    {
      "id": 165,
      "name": "笄公園",
      "category": "park",
      "area": "東京",
      "city": "港区",
      "lat": 35.6565,
      "lng": 139.7242,
      "url": "",
      "conditions": {
        "vaccination_cert": null,
        "size_limit": "",
        "fee": ""
      },
      "caution": "",
      "note": "",
      "sns": [],
      "source": "osm",
      "osm_id": "way/210745186",
      "last_verified": "2026-07-20"
    },
    {
      "id": 166,
      "name": "きたみふれあい広場",
      "category": "park",
      "area": "東京",
      "city": "世田谷区",
      "lat": 35.641,
      "lng": 139.589,
      "url": "",
      "conditions": {
        "vaccination_cert": null,
        "size_limit": "",
        "fee": ""
      },
      "caution": "",
      "note": "",
      "sns": [],
      "source": "osm",
      "osm_id": "way/211274984",
      "last_verified": "2026-07-20"
    },
    {
      "id": 167,
      "name": "聖蹟蒲田梅屋敷公園",
      "category": "park",
      "area": "東京",
      "city": "大田区",
      "lat": 35.5646,
      "lng": 139.7268,
      "url": "",
      "conditions": {
        "vaccination_cert": null,
        "size_limit": "",
        "fee": ""
      },
      "caution": "",
      "note": "",
      "sns": [],
      "source": "osm",
      "osm_id": "way/211438581",
      "last_verified": "2026-07-20"
    },
    {
      "id": 168,
      "name": "幡ヶ谷第三公園",
      "category": "park",
      "area": "東京",
      "city": "渋谷区",
      "lat": 35.678,
      "lng": 139.6711,
      "url": "",
      "conditions": {
        "vaccination_cert": null,
        "size_limit": "",
        "fee": ""
      },
      "caution": "",
      "note": "",
      "sns": [],
      "source": "osm",
      "osm_id": "way/215354276",
      "last_verified": "2026-07-20"
    },
    {
      "id": 169,
      "name": "多摩川緑地",
      "category": "park",
      "area": "東京",
      "city": "大田区",
      "lat": 35.5451,
      "lng": 139.7022,
      "url": "",
      "conditions": {
        "vaccination_cert": null,
        "size_limit": "",
        "fee": ""
      },
      "caution": "",
      "note": "",
      "sns": [],
      "source": "osm",
      "osm_id": "way/216571088",
      "last_verified": "2026-07-20"
    },
    {
      "id": 170,
      "name": "乃木公園",
      "category": "park",
      "area": "東京",
      "city": "港区",
      "lat": 35.6682,
      "lng": 139.7275,
      "url": "",
      "conditions": {
        "vaccination_cert": null,
        "size_limit": "",
        "fee": ""
      },
      "caution": "",
      "note": "",
      "sns": [],
      "source": "osm",
      "osm_id": "way/219099463",
      "last_verified": "2026-07-20"
    },
    {
      "id": 171,
      "name": "小菅東スポーツ公園",
      "category": "park",
      "area": "東京",
      "city": "葛飾区",
      "lat": 35.7534,
      "lng": 139.8225,
      "url": "",
      "conditions": {
        "vaccination_cert": null,
        "size_limit": "",
        "fee": ""
      },
      "caution": "",
      "note": "",
      "sns": [],
      "source": "osm",
      "osm_id": "way/219476464",
      "last_verified": "2026-07-20"
    },
    {
      "id": 172,
      "name": "本門寺公園",
      "category": "park",
      "area": "東京",
      "city": "大田区",
      "lat": 35.5797,
      "lng": 139.7062,
      "url": "",
      "conditions": {
        "vaccination_cert": null,
        "size_limit": "",
        "fee": ""
      },
      "caution": "",
      "note": "",
      "sns": [],
      "source": "osm",
      "osm_id": "way/220316971",
      "last_verified": "2026-07-20"
    },
    {
      "id": 173,
      "name": "亀有公園",
      "category": "park",
      "area": "東京",
      "city": "葛飾区",
      "lat": 35.7679,
      "lng": 139.8485,
      "url": "",
      "conditions": {
        "vaccination_cert": null,
        "size_limit": "",
        "fee": ""
      },
      "caution": "",
      "note": "",
      "sns": [],
      "source": "osm",
      "osm_id": "way/221136335",
      "last_verified": "2026-07-20"
    },
    {
      "id": 174,
      "name": "供養塚児童公園",
      "category": "park",
      "area": "東京",
      "city": "狛江市",
      "lat": 35.6235,
      "lng": 139.5819,
      "url": "",
      "conditions": {
        "vaccination_cert": null,
        "size_limit": "",
        "fee": ""
      },
      "caution": "",
      "note": "",
      "sns": [],
      "source": "osm",
      "osm_id": "way/222300438",
      "last_verified": "2026-07-20"
    },
    {
      "id": 175,
      "name": "小宮公園",
      "category": "park",
      "area": "東京",
      "city": "八王子市",
      "lat": 35.673,
      "lng": 139.3411,
      "url": "",
      "conditions": {
        "vaccination_cert": null,
        "size_limit": "",
        "fee": ""
      },
      "caution": "",
      "note": "",
      "sns": [],
      "source": "osm",
      "osm_id": "way/225523653",
      "last_verified": "2026-07-20"
    },
    {
      "id": 177,
      "name": "二子玉川公園",
      "category": "park",
      "area": "東京",
      "city": "世田谷区",
      "lat": 35.6076,
      "lng": 139.6335,
      "url": "",
      "conditions": {
        "vaccination_cert": null,
        "size_limit": "",
        "fee": ""
      },
      "caution": "",
      "note": "",
      "sns": [],
      "source": "osm",
      "osm_id": "way/233044925",
      "last_verified": "2026-07-20"
    },
    {
      "id": 178,
      "name": "荒川自然公園",
      "category": "park",
      "area": "東京",
      "city": "荒川区",
      "lat": 35.7412,
      "lng": 139.7863,
      "url": "",
      "conditions": {
        "vaccination_cert": null,
        "size_limit": "",
        "fee": ""
      },
      "caution": "",
      "note": "",
      "sns": [],
      "source": "osm",
      "osm_id": "way/234076101",
      "last_verified": "2026-07-20"
    },
    {
      "id": 179,
      "name": "北区赤羽スポーツの森公園",
      "category": "park",
      "area": "東京",
      "city": "北区",
      "lat": 35.7724,
      "lng": 139.7103,
      "url": "",
      "conditions": {
        "vaccination_cert": null,
        "size_limit": "",
        "fee": ""
      },
      "caution": "",
      "note": "",
      "sns": [],
      "source": "osm",
      "osm_id": "way/242000476",
      "last_verified": "2026-07-20"
    },
    {
      "id": 180,
      "name": "赤羽自然観察公園",
      "category": "park",
      "area": "東京",
      "city": "北区",
      "lat": 35.7738,
      "lng": 139.7107,
      "url": "",
      "conditions": {
        "vaccination_cert": null,
        "size_limit": "",
        "fee": ""
      },
      "caution": "",
      "note": "",
      "sns": [],
      "source": "osm",
      "osm_id": "way/242000513",
      "last_verified": "2026-07-20"
    },
    {
      "id": 181,
      "name": "須藤公園",
      "category": "park",
      "area": "東京",
      "city": "文京区",
      "lat": 35.7264,
      "lng": 139.7625,
      "url": "https://www.city.bunkyo.lg.jp/bosai/midori/kuritukouen/kouen/sudou.html",
      "conditions": {
        "vaccination_cert": null,
        "size_limit": "",
        "fee": ""
      },
      "caution": "",
      "note": "",
      "sns": [],
      "source": "osm",
      "osm_id": "way/243367978",
      "last_verified": "2026-07-20"
    },
    {
      "id": 182,
      "name": "下野谷遺跡公園",
      "category": "park",
      "area": "東京",
      "city": "西東京市",
      "lat": 35.7254,
      "lng": 139.5618,
      "url": "",
      "conditions": {
        "vaccination_cert": null,
        "size_limit": "",
        "fee": ""
      },
      "caution": "",
      "note": "",
      "sns": [],
      "source": "osm",
      "osm_id": "way/244578033",
      "last_verified": "2026-07-20"
    },
    {
      "id": 183,
      "name": "東淵江庭園",
      "category": "park",
      "area": "東京",
      "city": "足立区",
      "lat": 35.7844,
      "lng": 139.8409,
      "url": "",
      "conditions": {
        "vaccination_cert": null,
        "size_limit": "",
        "fee": ""
      },
      "caution": "",
      "note": "",
      "sns": [],
      "source": "osm",
      "osm_id": "way/247797500",
      "last_verified": "2026-07-20"
    },
    {
      "id": 184,
      "name": "恵比寿南二公園",
      "category": "park",
      "area": "東京",
      "city": "渋谷区",
      "lat": 35.6435,
      "lng": 139.7087,
      "url": "",
      "conditions": {
        "vaccination_cert": null,
        "size_limit": "",
        "fee": ""
      },
      "caution": "",
      "note": "",
      "sns": [],
      "source": "osm",
      "osm_id": "way/257726828",
      "last_verified": "2026-07-20"
    },
    {
      "id": 185,
      "name": "長池公園",
      "category": "park",
      "area": "東京",
      "city": "八王子市",
      "lat": 35.6081,
      "lng": 139.3897,
      "url": "",
      "conditions": {
        "vaccination_cert": null,
        "size_limit": "",
        "fee": ""
      },
      "caution": "",
      "note": "",
      "sns": [],
      "source": "osm",
      "osm_id": "way/257735397",
      "last_verified": "2026-07-20"
    },
    {
      "id": 186,
      "name": "新左近川親水公園",
      "category": "park",
      "area": "東京",
      "city": "江戸川区",
      "lat": 35.6539,
      "lng": 139.8626,
      "url": "",
      "conditions": {
        "vaccination_cert": null,
        "size_limit": "",
        "fee": ""
      },
      "caution": "",
      "note": "",
      "sns": [],
      "source": "osm",
      "osm_id": "way/257863847",
      "last_verified": "2026-07-20"
    },
    {
      "id": 187,
      "name": "総合レクリエーション公園",
      "category": "park",
      "area": "東京",
      "city": "江戸川区",
      "lat": 35.6605,
      "lng": 139.8581,
      "url": "",
      "conditions": {
        "vaccination_cert": null,
        "size_limit": "",
        "fee": ""
      },
      "caution": "",
      "note": "",
      "sns": [],
      "source": "osm",
      "osm_id": "way/258039003",
      "last_verified": "2026-07-20"
    },
    {
      "id": 188,
      "name": "馬事公苑",
      "category": "park",
      "area": "東京",
      "city": "世田谷区",
      "lat": 35.6366,
      "lng": 139.6333,
      "url": "",
      "conditions": {
        "vaccination_cert": null,
        "size_limit": "",
        "fee": ""
      },
      "caution": "",
      "note": "",
      "sns": [],
      "source": "osm",
      "osm_id": "way/25943922",
      "last_verified": "2026-07-20"
    },
    {
      "id": 189,
      "name": "都立狭山自然公園",
      "category": "park",
      "area": "東京",
      "city": "東村山市",
      "lat": 35.7613,
      "lng": 139.4417,
      "url": "",
      "conditions": {
        "vaccination_cert": null,
        "size_limit": "",
        "fee": ""
      },
      "caution": "",
      "note": "",
      "sns": [],
      "source": "osm",
      "osm_id": "way/26596572",
      "last_verified": "2026-07-20"
    },
    {
      "id": 190,
      "name": "多摩川台公園",
      "category": "park",
      "area": "東京",
      "city": "大田区",
      "lat": 35.5904,
      "lng": 139.6656,
      "url": "",
      "conditions": {
        "vaccination_cert": null,
        "size_limit": "",
        "fee": ""
      },
      "caution": "",
      "note": "",
      "sns": [],
      "source": "osm",
      "osm_id": "way/270138600",
      "last_verified": "2026-07-20"
    },
    {
      "id": 191,
      "name": "駒沢オリンピック公園",
      "category": "park",
      "area": "東京",
      "city": "世田谷区",
      "lat": 35.6252,
      "lng": 139.6609,
      "url": "",
      "conditions": {
        "vaccination_cert": null,
        "size_limit": "",
        "fee": ""
      },
      "caution": "",
      "note": "",
      "sns": [],
      "source": "osm",
      "osm_id": "way/27620248",
      "last_verified": "2026-07-20"
    },
    {
      "id": 192,
      "name": "本所松坂町公園",
      "category": "park",
      "area": "東京",
      "city": "墨田区",
      "lat": 35.6933,
      "lng": 139.7943,
      "url": "",
      "conditions": {
        "vaccination_cert": null,
        "size_limit": "",
        "fee": ""
      },
      "caution": "",
      "note": "",
      "sns": [],
      "source": "osm",
      "osm_id": "way/276701500",
      "last_verified": "2026-07-20"
    },
    {
      "id": 193,
      "name": "六木水の森公園 水車広場",
      "category": "park",
      "area": "東京",
      "city": "足立区",
      "lat": 35.7973,
      "lng": 139.8449,
      "url": "",
      "conditions": {
        "vaccination_cert": null,
        "size_limit": "",
        "fee": ""
      },
      "caution": "",
      "note": "",
      "sns": [],
      "source": "osm",
      "osm_id": "way/278514294",
      "last_verified": "2026-07-20"
    },
    {
      "id": 194,
      "name": "駒場公園",
      "category": "park",
      "area": "東京",
      "city": "目黒区",
      "lat": 35.6621,
      "lng": 139.6802,
      "url": "https://www.city.meguro.tokyo.jp/shisetsu/shisetsu/koen/komaba.html",
      "conditions": {
        "vaccination_cert": null,
        "size_limit": "",
        "fee": ""
      },
      "caution": "",
      "note": "",
      "sns": [],
      "source": "osm",
      "osm_id": "way/28145788",
      "last_verified": "2026-07-20"
    },
    {
      "id": 195,
      "name": "多摩中央公園",
      "category": "park",
      "area": "東京",
      "city": "多摩市",
      "lat": 35.6209,
      "lng": 139.4263,
      "url": "",
      "conditions": {
        "vaccination_cert": null,
        "size_limit": "",
        "fee": ""
      },
      "caution": "",
      "note": "",
      "sns": [],
      "source": "osm",
      "osm_id": "way/28848058",
      "last_verified": "2026-07-20"
    },
    {
      "id": 196,
      "name": "東京都立野川公園",
      "category": "park",
      "area": "東京",
      "city": "調布市",
      "lat": 35.6839,
      "lng": 139.5262,
      "url": "",
      "conditions": {
        "vaccination_cert": null,
        "size_limit": "",
        "fee": ""
      },
      "caution": "",
      "note": "",
      "sns": [],
      "source": "osm",
      "osm_id": "way/28849446",
      "last_verified": "2026-07-20"
    },
    {
      "id": 197,
      "name": "柴又公園",
      "category": "park",
      "area": "東京",
      "city": "江戸川区",
      "lat": 35.7345,
      "lng": 139.8977,
      "url": "https://www.city.katsushika.lg.jp/institution/1000096/1006896.html",
      "conditions": {
        "vaccination_cert": null,
        "size_limit": "",
        "fee": ""
      },
      "caution": "",
      "note": "",
      "sns": [],
      "source": "osm",
      "osm_id": "way/296118406",
      "last_verified": "2026-07-20"
    },
    {
      "id": 198,
      "name": "多摩川ガス橋緑地",
      "category": "park",
      "area": "東京",
      "city": "大田区",
      "lat": 35.572,
      "lng": 139.6793,
      "url": "",
      "conditions": {
        "vaccination_cert": null,
        "size_limit": "",
        "fee": ""
      },
      "caution": "",
      "note": "",
      "sns": [],
      "source": "osm",
      "osm_id": "way/302393611",
      "last_verified": "2026-07-20"
    },
    {
      "id": 199,
      "name": "都立汐入公園",
      "category": "park",
      "area": "東京",
      "city": "荒川区",
      "lat": 35.7369,
      "lng": 139.8109,
      "url": "",
      "conditions": {
        "vaccination_cert": null,
        "size_limit": "",
        "fee": ""
      },
      "caution": "",
      "note": "",
      "sns": [],
      "source": "osm",
      "osm_id": "way/30462674",
      "last_verified": "2026-07-20"
    },
    {
      "id": 200,
      "name": "芝公園",
      "category": "park",
      "area": "東京",
      "city": "港区",
      "lat": 35.6604,
      "lng": 139.7501,
      "url": "",
      "conditions": {
        "vaccination_cert": null,
        "size_limit": "",
        "fee": ""
      },
      "caution": "",
      "note": "",
      "sns": [],
      "source": "osm",
      "osm_id": "way/30520683",
      "last_verified": "2026-07-20"
    },
    {
      "id": 201,
      "name": "びくに公園",
      "category": "park",
      "area": "東京",
      "city": "練馬区",
      "lat": 35.7559,
      "lng": 139.5973,
      "url": "",
      "conditions": {
        "vaccination_cert": null,
        "size_limit": "",
        "fee": ""
      },
      "caution": "",
      "note": "",
      "sns": [],
      "source": "osm",
      "osm_id": "way/306994974",
      "last_verified": "2026-07-20"
    },
    {
      "id": 202,
      "name": "東池袋中央公園",
      "category": "park",
      "area": "東京",
      "city": "豊島区",
      "lat": 35.7301,
      "lng": 139.7187,
      "url": "",
      "conditions": {
        "vaccination_cert": null,
        "size_limit": "",
        "fee": ""
      },
      "caution": "",
      "note": "",
      "sns": [],
      "source": "osm",
      "osm_id": "way/311069857",
      "last_verified": "2026-07-20"
    },
    {
      "id": 203,
      "name": "砧公園",
      "category": "park",
      "area": "東京",
      "city": "世田谷区",
      "lat": 35.6305,
      "lng": 139.6203,
      "url": "",
      "conditions": {
        "vaccination_cert": null,
        "size_limit": "",
        "fee": ""
      },
      "caution": "",
      "note": "",
      "sns": [],
      "source": "osm",
      "osm_id": "way/32203169",
      "last_verified": "2026-07-20"
    },
    {
      "id": 204,
      "name": "光が丘公園",
      "category": "park",
      "area": "東京",
      "city": "練馬区",
      "lat": 35.7662,
      "lng": 139.6304,
      "url": "",
      "conditions": {
        "vaccination_cert": null,
        "size_limit": "",
        "fee": ""
      },
      "caution": "",
      "note": "",
      "sns": [],
      "source": "osm",
      "osm_id": "way/32305435",
      "last_verified": "2026-07-20"
    },
    {
      "id": 205,
      "name": "多摩川玉川公園",
      "category": "park",
      "area": "東京",
      "city": "世田谷区",
      "lat": 35.5942,
      "lng": 139.6542,
      "url": "",
      "conditions": {
        "vaccination_cert": null,
        "size_limit": "",
        "fee": ""
      },
      "caution": "",
      "note": "",
      "sns": [],
      "source": "osm",
      "osm_id": "way/326480266",
      "last_verified": "2026-07-20"
    },
    {
      "id": 206,
      "name": "淡路公園",
      "category": "park",
      "area": "東京",
      "city": "千代田区",
      "lat": 35.6972,
      "lng": 139.767,
      "url": "",
      "conditions": {
        "vaccination_cert": null,
        "size_limit": "",
        "fee": ""
      },
      "caution": "",
      "note": "",
      "sns": [],
      "source": "osm",
      "osm_id": "way/332338650",
      "last_verified": "2026-07-20"
    },
    {
      "id": 207,
      "name": "東白鬚公園",
      "category": "park",
      "area": "東京",
      "city": "墨田区",
      "lat": 35.733,
      "lng": 139.8144,
      "url": "",
      "conditions": {
        "vaccination_cert": null,
        "size_limit": "",
        "fee": ""
      },
      "caution": "",
      "note": "",
      "sns": [],
      "source": "osm",
      "osm_id": "way/34016460",
      "last_verified": "2026-07-20"
    },
    {
      "id": 208,
      "name": "府中市郷土の森公園",
      "category": "park",
      "area": "東京",
      "city": "府中市",
      "lat": 35.6553,
      "lng": 139.4746,
      "url": "",
      "conditions": {
        "vaccination_cert": null,
        "size_limit": "",
        "fee": ""
      },
      "caution": "",
      "note": "",
      "sns": [],
      "source": "osm",
      "osm_id": "way/343145803",
      "last_verified": "2026-07-20"
    },
    {
      "id": 209,
      "name": "上千葉砂原公園",
      "category": "park",
      "area": "東京",
      "city": "葛飾区",
      "lat": 35.7577,
      "lng": 139.8419,
      "url": "",
      "conditions": {
        "vaccination_cert": null,
        "size_limit": "",
        "fee": ""
      },
      "caution": "",
      "note": "",
      "sns": [],
      "source": "osm",
      "osm_id": "way/347585931",
      "last_verified": "2026-07-20"
    },
    {
      "id": 210,
      "name": "杉並区立 杉並児童交通公園",
      "category": "park",
      "area": "東京",
      "city": "杉並区",
      "lat": 35.6885,
      "lng": 139.6316,
      "url": "",
      "conditions": {
        "vaccination_cert": null,
        "size_limit": "",
        "fee": ""
      },
      "caution": "",
      "note": "",
      "sns": [],
      "source": "osm",
      "osm_id": "way/35575524",
      "last_verified": "2026-07-20"
    },
    {
      "id": 211,
      "name": "忠生公園",
      "category": "park",
      "area": "東京",
      "city": "町田市",
      "lat": 35.5726,
      "lng": 139.4241,
      "url": "",
      "conditions": {
        "vaccination_cert": null,
        "size_limit": "",
        "fee": ""
      },
      "caution": "",
      "note": "",
      "sns": [],
      "source": "osm",
      "osm_id": "way/369232282",
      "last_verified": "2026-07-20"
    },
    {
      "id": 212,
      "name": "都立桜ヶ丘公園",
      "category": "park",
      "area": "東京",
      "city": "多摩市",
      "lat": 35.638,
      "lng": 139.4611,
      "url": "",
      "conditions": {
        "vaccination_cert": null,
        "size_limit": "",
        "fee": ""
      },
      "caution": "",
      "note": "",
      "sns": [],
      "source": "osm",
      "osm_id": "way/370708420",
      "last_verified": "2026-07-20"
    },
    {
      "id": 213,
      "name": "肥後細川庭園",
      "category": "park",
      "area": "東京",
      "city": "文京区",
      "lat": 35.7131,
      "lng": 139.7225,
      "url": "https://www.higo-hosokawa.jp/",
      "conditions": {
        "vaccination_cert": null,
        "size_limit": "",
        "fee": ""
      },
      "caution": "",
      "note": "",
      "sns": [],
      "source": "osm",
      "osm_id": "way/372547137",
      "last_verified": "2026-07-20",
      "link_broken": true
    },
    {
      "id": 214,
      "name": "文理台公園",
      "category": "park",
      "area": "東京",
      "city": "西東京市",
      "lat": 35.7442,
      "lng": 139.5622,
      "url": "",
      "conditions": {
        "vaccination_cert": null,
        "size_limit": "",
        "fee": ""
      },
      "caution": "",
      "note": "",
      "sns": [],
      "source": "osm",
      "osm_id": "way/377408992",
      "last_verified": "2026-07-20"
    },
    {
      "id": 215,
      "name": "飛鳥山公園",
      "category": "park",
      "area": "東京",
      "city": "北区",
      "lat": 35.7506,
      "lng": 139.7387,
      "url": "https://www.city.kita.lg.jp/parks/asukayamapark/index.html",
      "conditions": {
        "vaccination_cert": null,
        "size_limit": "",
        "fee": "無料"
      },
      "caution": "水遊びエリア・庭園内はペット立入禁止です。",
      "note": "",
      "sns": [],
      "source": "osm",
      "osm_id": "way/38017808",
      "last_verified": "2026-07-20"
    },
    {
      "id": 216,
      "name": "妙正寺公園",
      "category": "park",
      "area": "東京",
      "city": "杉並区",
      "lat": 35.7173,
      "lng": 139.6182,
      "url": "",
      "conditions": {
        "vaccination_cert": null,
        "size_limit": "",
        "fee": ""
      },
      "caution": "",
      "note": "",
      "sns": [],
      "source": "osm",
      "osm_id": "way/38177717",
      "last_verified": "2026-07-20"
    },
    {
      "id": 217,
      "name": "恵比寿東公園",
      "category": "park",
      "area": "東京",
      "city": "渋谷区",
      "lat": 35.6481,
      "lng": 139.7118,
      "url": "",
      "conditions": {
        "vaccination_cert": null,
        "size_limit": "",
        "fee": ""
      },
      "caution": "",
      "note": "",
      "sns": [],
      "source": "osm",
      "osm_id": "way/382975172",
      "last_verified": "2026-07-20"
    },
    {
      "id": 218,
      "name": "日本航空学園青梅キャンパス",
      "category": "park",
      "area": "東京",
      "city": "青梅市",
      "lat": 35.772,
      "lng": 139.2692,
      "url": "",
      "conditions": {
        "vaccination_cert": null,
        "size_limit": "",
        "fee": ""
      },
      "caution": "",
      "note": "",
      "sns": [],
      "source": "osm",
      "osm_id": "way/384693014",
      "last_verified": "2026-07-20"
    },
    {
      "id": 219,
      "name": "武蔵野中央公園",
      "category": "park",
      "area": "東京",
      "city": "武蔵野市",
      "lat": 35.7186,
      "lng": 139.5585,
      "url": "",
      "conditions": {
        "vaccination_cert": null,
        "size_limit": "",
        "fee": ""
      },
      "caution": "",
      "note": "",
      "sns": [],
      "source": "osm",
      "osm_id": "way/38748023",
      "last_verified": "2026-07-20"
    },
    {
      "id": 220,
      "name": "都立小山田緑地 梅木窪分園",
      "category": "park",
      "area": "東京",
      "city": "町田市",
      "lat": 35.6015,
      "lng": 139.4161,
      "url": "",
      "conditions": {
        "vaccination_cert": null,
        "size_limit": "",
        "fee": ""
      },
      "caution": "",
      "note": "",
      "sns": [],
      "source": "osm",
      "osm_id": "way/391585347",
      "last_verified": "2026-07-20"
    },
    {
      "id": 221,
      "name": "都立小山田緑地 大久保分園",
      "category": "park",
      "area": "東京",
      "city": "町田市",
      "lat": 35.602,
      "lng": 139.4116,
      "url": "",
      "conditions": {
        "vaccination_cert": null,
        "size_limit": "",
        "fee": ""
      },
      "caution": "",
      "note": "",
      "sns": [],
      "source": "osm",
      "osm_id": "way/391590693",
      "last_verified": "2026-07-20"
    },
    {
      "id": 222,
      "name": "みなとが丘ふ頭公園",
      "category": "park",
      "area": "東京",
      "city": "品川区",
      "lat": 35.5971,
      "lng": 139.7634,
      "url": "",
      "conditions": {
        "vaccination_cert": null,
        "size_limit": "",
        "fee": ""
      },
      "caution": "",
      "note": "",
      "sns": [],
      "source": "osm",
      "osm_id": "way/396664384",
      "last_verified": "2026-07-20"
    },
    {
      "id": 223,
      "name": "青海中央ふ頭公園",
      "category": "park",
      "area": "東京",
      "city": "江東区",
      "lat": 35.6209,
      "lng": 139.7805,
      "url": "",
      "conditions": {
        "vaccination_cert": null,
        "size_limit": "",
        "fee": ""
      },
      "caution": "",
      "note": "",
      "sns": [],
      "source": "osm",
      "osm_id": "way/397862646",
      "last_verified": "2026-07-20"
    },
    {
      "id": 224,
      "name": "松渓橋公園",
      "category": "park",
      "area": "東京",
      "city": "杉並区",
      "lat": 35.6971,
      "lng": 139.6231,
      "url": "",
      "conditions": {
        "vaccination_cert": null,
        "size_limit": "",
        "fee": ""
      },
      "caution": "",
      "note": "",
      "sns": [],
      "source": "osm",
      "osm_id": "way/39815941",
      "last_verified": "2026-07-20"
    },